nome;morada;postal;localidade;lat;lng;codigo;
A.P.A.C.D.M. de Évora;Quinta do Escurinho - Apartado 431  ;7000 - 502 évora;Évora;38.5653;-7.931904;705266;
A.P.P.A.C.D.M. de Moura;Avenida do Carmo N.º 3    -    Apartado 105  ;7860 - 195 moura;Moura;38.143135;-7.4526143;210558;
ADBES - Associação Desenvolvimento e Bem Estar Social da Cruz da Picada;Bairro Cruz da Picada, Lote 15  ;7000 - 772 évora;Malagueira;38.567966;-7.929181;705272;
APPACDM de Elvas;Av.Bombeiros Voluntários de Elvas - Apart. 353  ;7350 - 190 elvas;Elvas;38.869095;-7.1600924;1207494;
Academia de Música de Elvas - Manuel Rodrigues Coelho;Rua de Olivença, nº 14- Apartado 151  ;7350 - 106 elvas;Elvas;38.878742;-7.1626353;1207134;
Ass. Escolinha de Arte;R. Ferreira de Castro, 10 - Bº do Granito  ;7000 - 716 bairro do granito;Bairro do Granito;38.586033;-7.9144316;705958;
Ass.Sócio-Cultural Terapeutica de Évora - Lar Escola S.Francisco de Assis;Lugar do Zambujinho  ;7005 - 132 azaruja;Évora;38.66949;-7.767759;705670;
Associação Apoio Desenvolvimento Integrado Ermidas do Sado;R. 10 - Edifício da Cantina Escolar  ;7565 - 210 ermidas-sado;Ermidas do Sado;38.005287;-8.415786;1509022;
Associação Beneficiência dos Amigos de Terrugem;Rua das Laranjeiras -Bairro de S. António  ;7350 - 491 terrugem elv;Terrugem;38.845028;-7.347423;1207642;
Associação Centro Infantil de S. Manços;Av. Eugénio de Almeida, nº 1  ;7005 - 721 são manços;S. Manços;38.460926;-7.750825;705138;
Associação da Creche e Jardim Infancia de Évora;R. de Machede, 8  ;7000 - 864 évora;Évora;38.57168;-7.903853;705882;
Associação da Creche e Jardim de Infância e Centro de Dia;Casebres  ;7580 - 551 são martinho asl;Casebres;38.527367;-8.495548;1501993;
Associação de Assistência de Vila Boim;Largo D. João Aboim, nº 4  ;7350 - 501 vila boim;Vila Boim;38.86184;-7.274544;1207630;
Associação de Paralisia Cerebral de Évora;Av. Dinis Miranda,  n.º 23  ;7000 - 751 évora;Évora;38.565483;-7.906396;705917;
CERCI - Cooperativa de Educação e Reabilitação de Crianças Inadaptadas de Portalegre, C.R.L;Rua 15 de Maio, Apartado 215  ;7300 - 207 portalegre;Portalegre;39.288887;-7.4283776;1214908;
CERCIBEJA Coop. Educ. Reab. Crianças Inadaptadas;Qt. dos Britos  ;7800 - 242 beja;Beja;38.036118;-7.8707867;205057;
CERCICOA Coop. Educ. Reab. Cr. Inadaptadas;Estrada de S. Barnabé,28  ;7700 - 015 almodôvar;Almodôvar;37.50982;-8.063968;202998;
CERCIDIANA Coop. para a Educação, Reabilitação e Inserção de Cidadãos Inadaptados;Quinta do Feijão ao Espinheiro - Apartado 92  ;7000 - 000 évora;Évora;38.59471;-7.8941813;705090;
CERCIESTREMOZ Coop. Ed. R. Cri. Inadaptadas;Qt. de Stº Antão  ;7100 - 000 estremoz;Estremoz;38.82734;-7.585424;704884;
CERCISIAGO Coop. P. Educ. Reab. C. Inadaptadas;Rua das Nogueiras  ;7540 - 193 santiago do cacém;Santiago do Cacém;38.01157;-8.695421;1509712;
CRIPS C. de Recuperação Infantil;Av. Manuel Pires Filipe  ;7400 - 223 ponte de sor;Ponte de Sor;39.251026;-8.006871;1213077;
Casa Sagrado Coração de Jesus;Estr. da Chainha - Quinta do Pio  ;7000 - 213 canaviais;Canaviais;38.60704;-7.916336;705990;
Centro Comunitário Pastorinhos de Fátima;Rua do Frei Aleixo - Bairro do Frei Aleixo -  ;7005 - 430 évora;Évora;38.586292;-7.899834;705084;
Centro Infantil Augusto Piteira;Rua Subtenente António Piteira  ;7040 - 114 arraiolos;Ilhas;38.717823;-7.970185;702983;
Centro Infantil Coronel Sousa Tavares;R. Pedro Alvares Cabral  ;7800 - 509 beja;Beja;38.010155;-7.8611145;205030;
Centro Infantil Irene Lisboa;Pátio do Salema, 20  ;7000 - 818 évora;Évora;38.570793;-7.9073453;705194;
Centro Infantil Nossa Senhora do Carmo;Largo de Santa Clara, nº 18  ;7860 - 202 moura;Moura;38.138615;-7.4501467;210356;
Centro Infantil Nª Sra. da Saúde;R. Simão Farinha, 6  ;7170 - 032 redondo;Redondo;38.645557;-7.546778;710044;
Centro Infantil Palmo e Meio;Rua Catarina Eufémia, 1  ;7005 - 320 évora;Horta das Figueiras;38.561176;-7.910741;705405;
Centro Infantil da Stª Cª Misericórdia;Praça do Município, nº 17  ;6050 - 358 nisa;Nisa;39.51864;-7.650048;1212555;
Centro Infantil da Stª Cª Misericórdia;Rua Salgueiro Maia,  nº 81-A  ;7430 - 000 crato;Crato;39.29126;-7.64441;1206020;
Centro Infantil de Alcácer;Estrada Nacional, Nº 5 Junto ao Jardim Público  ;7580 - 103 alcácer do sal;Alcácer do Sal;38.369408;-8.500826;1501746;
Centro Infantil de Ferreira do Alentejo;Rua Professor Mariano Feio  ;7900 - 564 ferreira do alentejo;Ferreira do Alentejo;38.06468;-8.116605;208515;
"Centro Infantil de Sines ""A Conchinha""";Quinta de S. Sebastião  ;7520 - 148 sines;Sines;37.95469;-8.8627;1513143;
Centro Infantil do Lousal;Mina do Lousal  ;7570 - 006 azinh barros s mam sádão;Mina do Lousal;38.033184;-8.428981;1505353;
Centro Infantil-Instituto Jean Piaget;Bairro das Flores, Apartado 38  ;7501 - 909 santo andré;Santo André;38.051453;-8.784809;1509092;
"Centro Social Infantil ""O Girassol""";R. Olivença, 12  ;7300 - 149 portalegre;Portalegre;39.294292;-7.4290752;1214862;
Centro Social Nossa Senhora do Paço;Largo do Conde nº 14  ;7350 - 431 barbacena;Barbacena;38.960785;-7.297935;1207616;
Centro Social Paroquial de Santo André;Estrada Nacional, 18 - Ao Gil  ;7100 - 075 estremoz;Estremoz;38.84661;-7.592838;704010;
Centro Social Paroquial de Stº António de Lavre;R. Bernardino Machado, nº 5  ;7050 - 467 lavre;Lavre;38.77425;-8.370605;706721;
Centro Social e Jardim Infantil de S. Cristóvão;Rua 25 de Abril - Bairro do Atalaião  ;7300 - 023 portalegre;Portalegre;39.291584;-7.4241023;1214278;
Centro Social e Paroquial de S. João de Deus;R. S. João Bosco - Bairro de Almeirim  ;7005 - 604 évora;Évora;38.54549;-7.898623;705630;
Centro Social e Paroquial de S. Paulo;R. Estrela Faria, nº 14  ;7000 - 483 évora;Évora;38.554325;-7.927317;705932;
Centro da Ass. Port. Paralisia Cerebral;R. Cidade de S. Paulo, Apartado 5  ;7800 - 000 beja;Beja;38.00529;-7.8549886;205178;
Centro de Actividade Infantil;R. Gabriel Victor de Monte Pereira, 21-1º-Esq.  ;7000 - 533 évora;Évora;38.572224;-7.912007;705776;
Centro de Reabilitação e Formação Profissional - Cerciportalegre;Zona Industrial - Painel da Estação de Serviço, Caixa 4  ;7320 - 305 castelo de vide;Castelo de Vide;39.423275;-7.4921284;1205209;
Centro de Recuperação de Menores de Assumar;Rua Francisco Velez de Peso  ;7450 - 000 monforte;Assumar;39.140686;-7.384374;1211010;
Cercigrândola-Coop.Educação e Reabilitação de Crianças Inadaptadas;Rua Vitor Manuel Ribeiro da Rocha  ;7570 - 113 grândola;Grândola;38.173164;-8.5688;1505270;
Colégio Estrela do Mar;Urb. Quinta do Meio, Lote 2  R/C;;;;;;
0;7520 - 080 sines;Sines;37.953644;-8.85492;1513213;;
Colégio Luso-Britânico;Av. das Forças Armadas nº 2 - Bairro Sta Luzia  ;7350 - 095 elvas;Elvas;38.87398;-7.164825;1207112;
Colégio Salesianos - Évora;Av. São João Bosco, 4  ;7000 - 766 évora;Évora;38.57143;-7.9165344;705740;
Colégio de Laura Vicuña;Av. 25 de Abril, nº 15  ;7080 - 134 vendas novas;Vendas Novas;38.674088;-8.455504;712805;
Colégio de Nossa Senhora da Graça;R. Custódio Bráz Pacheco  ;7645 - 256 vila nova de milfontes;Vila Nova de Milfontes;37.72515;-8.780318;211889;
Conservatório Regional de Évora - Eborae Musica;Convento Remédios-Av. S.Sebastião-Apart 2126  ;7000 - 000 évora;Évora;38.569836;-7.9150004;705878;
Conservatório Regional do Alto Alentejo;Rua da Caridade, 17 - Apartado 129  ;7200 - 399 reguengos de monsaraz;Reguengos de Monsaraz;38.42557;-7.535544;711331;
Conservatório Regional do Baixo Alentejo;Praça da República - Apart. 281  ;7800 - 427 beja;Beja;38.015633;-7.865401;205268;
Conservatório Regional do Baixo Alentejo (Deleg. de Moura);Rua da República, nº 31  ;7860 - 245 moura;Moura;38.141697;-7.449444;210112;
Conservatório Regional do Baixo Alentejo (Delegação de Castro Verde);Rua da Liberdade  ;7780 - 000 castro verde;Castro Verde;37.70226;-8.088235;206095;
Coopberço - Cooperativa de Prestação de Serviços à Infância, CRL;R. de Aviz, 87  ;7000 - 591 évora;Évora;38.57473;-7.910098;705561;
Coração Delta - Associação de Solidariedade Social;Rua do Brasil, 4  ;7370 - 000 ;Nossa Senhora da Expectação;39.012806;-7.0636134;1204753;
Creche e Jardim Infantil D. Ana Angélica da Silveira da Stª Casa da Misericórdia de Borba;Av. Quinta da Prata Edíficio 2  ;7150 - 154 borba;Borba;38.8051;-7.463195;703448;
Creche e Jardim de Infância O Comboio;Avenida 5 de Outubro  ;7565 - 000 ermidas-sado;Alvalade;37.936928;-8.392461;1509840;
Creche e Jardim de Infância da Stª Casa da Misericórdia de Ourique;R. Bombeiros Voluntários   ;7670 - 262 ourique;Ourique;37.652863;-8.227463;212190;
Creche e Jardim de Infância de Grândola;R. D. Afonso Henriques  ;7570 - 236 grândola;Grândola;38.177574;-8.562537;1505648;
Creche jardim de Infância Margalice;Rua Doutoura Isabel de Castro, 5 - Bairro Casinha  ;7005 - 515 évora;Évora;38.55611;-7.926047;705535;
Creche-Jardim Infantil 25 de Abril;R. Bartolomeu Dias, 20  ;7080 - 121 vendas novas;Vendas Novas;38.6761;-8.469597;712488;
EPEI A-do-Pinto, Serpa;Rua da Liberdade nº50  ;7830 - 011 vila nova de são bento;A-do-Pinto;null;null;50213002;
EPEI Figueira e Barros, Avis;R. Afonso Costa  ;7480 - 351 figueira e barros;Figueira e Barros;null;null;51203003;
EPEI S. Miguel de Machede, Évora;R. Évora, 14  ;7005 - 799 s. miguel de machede;S. Miguel de Machede;null;null;50705001;
EPEI Vales Mortos, Serpa;Vales Mortos  ;7830 - 000 serpa;Vales Mortos;null;null;50213004;
EPEI de Mombeja/Trigaches, Beja;Avª 25 de Abril  ;7800 - 641 mombeja;Mombeja;null;null;50205003;
EPEI de Palma, Alcácer do Sal;Herdade de Palma  ;7580 - 325 alcácer do sal;Alcácer do Sal;null;null;51501002;
EPEI de São Bartolomeu da Serra, Santiago do Cacém;Av. 25 de Abril  ;7540 - 321 são bartolomeu da serra;S. Bartolomeu da Serra;null;null;51509003;
EPEI do Roncão, Santiago do Cacém;Vendas do Roncão  ;7540 - 068 santiago do cacém;Roncão;null;null;51509004;
ERECA-Esc.Reab.e Ensino Crianças Adolescentes;Av. Dr. José António Almeida, n.º 14 - Apart 61  ;7200 - 372 reguengos de monsaraz;Reguengos de Monsaraz;38.423615;-7.5362296;711335;
Engenho e Arte - Associação de Defesa e Valorização de Messejana;Rua do Engenho 6  ;7600 - 337 messejana;Messejana;37.83415;-8.244139;201309;
Escola Básica Ana Maria Ferreira Gordo, Crato;Tapada da Câmara-Apart. nº 28  ;7430 - 000 crato;Crato;39.290653;-7.650281;1206960;
Escola Básica André de Resende, Évora;Avenida Gago Coutinho  ;7005 - 135 évora;Évora;38.5731;-7.8958945;705389;
Escola Básica Aviador Brito Paes, Colos, Odemira;Cerca do Vale da Rosa  ;7630 - 329 colos;Colos;37.733055;-8.46557;211774;
Escola Básica Bernardim Ribeiro, Alcácer do Sal;Lg. de S. Francisco, 6  ;7595 - 102 torrão;Torrão;38.293697;-8.223785;1501443;
Escola Básica Conde de Vilalva, Évora;Avenida António Barata - Bairro das Pites  ;7005 - 621 évora;Évora;38.58465;-7.9086266;705009;
Escola Básica Cristóvão Falcão, Portalegre;Avenida do Bonfim - Apartado 69  ;7300 - 067 portalegre;Portalegre;39.300323;-7.433022;1214675;
Escola Básica D. Jorge de Lencastre, Grândola;Avenida António Inácio da Cruz  ;7570 - 185 grândola;Grândola;38.173077;-8.561268;1505207;
Escola Básica D. João IV, Vila Viçosa;Rua Horta do Reguengo  ;7160 - 000 vila viçosa;Vila Viçosa;38.781654;-7.425807;714910;
Escola Básica D. João de Portel, Portel;R. de S. Paulo  ;7220 - 401 portel;Portel;38.309208;-7.7069426;709026;
Escola Básica Damião de Odemira, Odemira;Horta dos Reis - Apartado 25  ;7630 - 909 odemira;Odemira;37.59861;-8.632752;211289;
Escola Básica Diogo Lopes Sequeira, Alandroal;Tapada da Alfarrobeira  ;7250 - 101 alandroal;Alandroal;38.70511;-7.403481;701167;
Escola Básica Dr. António Colaço, Castro Verde;R. Luís Vaz de Camões, 2  ;7780 - 197 castro verde;Castro Verde;37.702106;-8.091432;206824;
Escola Básica Dr. Manuel Brito Camacho, Aljustrel;Rua de Beja - Apartado 19  ;7600 - 032 aljustrel;Aljustrel;37.881462;-8.161008;201450;
Escola Básica Dr. Manuel Magro Machado, Santo António das Areias, Marvão;Bairro da Junta de Freguesia  ;7330 - 253 santo antónio das areias;Santo António das Areias;39.4137;-7.3512535;1210943;
Escola Básica Engenheiro Manuel R. Amaro da Costa, São Teotónio, Odemira;Apartado 84  ;7630 - 000 odemira;S. Teotónio;37.51084;-8.705423;211975;
Escola Básica Fialho de Almeida, Cuba;Largo da Feira  ;7940 - 000 cuba;Cuba;38.17093;-7.892577;207320;
Escola Básica Frei André da Veiga, Santiago do Cacém;Rua 1º de Maio  ;7540 - 145 santiago do cacém;Santiago do Cacém;38.02146;-8.694788;1509558;
Escola Básica Frei António Chagas, Vidigueira;Estrada da Circunvalação  ;7960 - 212 vidigueira;Vidigueira;38.208122;-7.80643;214039;
Escola Básica Frei Manuel Cardoso, Fronteira;Largo da Estação  ;7460 - 000 fronteira;Fronteira;39.047783;-7.6450787;1208312;
Escola Básica Garcia da Orta, Castelo de Vide;Estrada da Boavista  ;7320 - 202 castelo de vide;Castelo de Vide;39.4127;-7.45112;1205172;
Escola Básica José Régio, Portalegre;Rua João Villaret - Apartado 228  ;7300 - 190 portalegre;Portalegre;39.2837;-7.4255977;1214630;
Escola Básica João Pedro de Andrade, Ponte de Sôr;Tapada do Telheiro  ;7400 - 254 ponte de sor;Ponte de Sor;39.245823;-8.011926;1213757;
Escola Básica Manuel Ferreira Patrício, Évora;Av. Engº Arantes de Oliveira  ;7000 - 758 évora;Évora;38.574154;-7.9241643;705306;
Escola Básica Mestre de Avis, Avis;Estrada Nacional nº 244  ;7480 - 155 avis;Avis;39.052692;-7.894141;1203036;
Escola Básica Nossa Senhora da Luz, Arronches;Rua Dr. Edmundo Curvelo  ;7340 - 029 arronches;Arronches;39.118637;-7.287081;1202143;
Escola Básica Padre Bento Pereira, Borba;Avenida Bombeiros Voluntários  ;7150 - 101 borba;Borba;38.802483;-7.4544473;703591;
Escola Básica Padre Joaquim Maria Fernandes, Sousel;Tapada da Portagem  ;7470 - 203 sousel;Sousel;38.955013;-7.6735;1215987;
Escola Básica Pedro Nunes, Alcácer do Sal;Bairro do Morgadinho  ;7580 - 210 alcácer do sal;Alcácer do Sal;38.376087;-8.514595;1501116;
Escola Básica Prof. Arménio Lança, Santiago do Cacém;R. Soeiro Pereira Gomes  ;7565 - 070 alvalade;Alvalade;37.9347;-8.395271;1509985;
Escola Básica Sebastião da Gama, Estremoz;R. General Humberto Delgado  ;7100 - 123 estremoz;Estremoz;38.84837;-7.5902476;704719;
Escola Básica São João Batista, Campo Maior;Avenida General Humberto Delgado  ;7370 - 106 campo maior;Campo Maior;39.0158;-7.070375;1204462;
Escola Básica São João de Deus, Montemor-o-Novo;Rua Dr. Adriano Vaz Velho  ;7050 - 147 montemor-o-novo;Montemor-o- Novo;38.64628;-8.209289;706800;
Escola Básica Vasco da Gama, Sines;R. da Reforma Agrária  ;7520 - 189 sines;Sines;37.960205;-8.872012;1513632;
Escola Básica da Avenida Heróis do Ultramar, Évora;Av. Heróis do Ultramar  ;7000 - 720 évora;Évora;38.566975;-7.895182;705083;
Escola Básica da Avenida, Campo Maior;Lg. dos Carvajaes  ;7370 - 110 campo maior;Campo Maior;39.01406;-7.0698867;1204066;
Escola Básica da Boa Fé, Elvas;Bairro da Boa Fé  ;7350 - 215 elvas;Elvas;38.883892;-7.158734;1207291;
Escola Básica da Calçadinha, Elvas;Calcadinha  ;7350 - 466 elvas;Calçadinha;38.882244;-7.2117214;1207204;
Escola Básica da Comenda, Gavião;R. D. Delfina Pequito Rebelo  ;6040 - 041 comenda;Comenda;39.401497;-7.781178;1209473;
Escola Básica da Cooperativa, Campo Maior;Av. António Sérgio  ;7370 - 090 campo maior;Campo Maior;39.020046;-7.0657516;1204666;
Escola Básica da Corredoura, Portalegre;Parque Miguel Bombarda - Jardim da Corredoura  ;7300 - 107 portalegre;Portalegre;39.295715;-7.4278426;1214239;
Escola Básica da Cruz da Picada, Évora;Bairro da Cruz da Picada  ;7000 - 772 évora;Évora;38.567577;-7.9280972;705326;
Escola Básica da Fonte Nova, Campo Maior;Estrada da Fonte Nova  ;7370 - 201 campo maior;Campo Maior;39.01424;-7.074432;1204334;
Escola Básica da Horta das Figueiras, Évora;Bairro da  Horta das Figueiras  ;7005 - 292 évora;Évora;38.561153;-7.9101186;705253;
Escola Básica da Mata, Estremoz;Av. Dr. Marques Crespo  ;7100 - 101 estremoz;Estremoz;38.838116;-7.5825925;704561;
Escola Básica da Porta Nova, Moura;Lg. José Mª dos Santos  ;7860 - 008 moura;Moura;38.138573;-7.448044;210788;
Escola Básica da Praceta, Portalegre;"Praceta de ""Os Lusíadas""  ";7300 - 113 portalegre;Portalegre;39.30191;-7.432445;1214945;
Escola Básica da Quinta da Vista Alegre, Évora;R. Fundação C.Gulbenkian -Qta da Vista Alegre  ;7000 - 848 évora;Évora;38.57729;-7.920299;705065;
Escola Básica da Raposeira, Elvas;Estrada da Raposeira  ;7350 - 408 elvas;Elvas;38.885612;-7.1794767;1207513;
Escola Básica das Fontainhas, Elvas;Estacao dos Caminhos de Ferro  ;7350 - 227 elvas;Elvas;38.89512;-7.141816;1207859;
Escola Básica de Abade Correia da Serra, Serpa;Rua Dr Edgar Pires Valadas  ;7830 - 479 serpa;Serpa;37.939426;-7.59176;213372;
Escola Básica de Abela, Santiago do Cacém;R. de Santiago, 22  ;7540 - 011 abela;Abela;38.00123;-8.559587;1509622;
Escola Básica de Aguiar, Viana do Alentejo;Escola de Aguiar  ;7090 - 000 viana do alentejo;Aguiar;38.391693;-7.967899;713884;
Escola Básica de Alagoa, Portalegre;R. Prof. Manuel Cândido  ;7300 - 301 alagoa;Alagoa - Portalegre;39.360294;-7.538365;1214421;
Escola Básica de Albernoa, Beja;Rua Dr. José Luís Saramago  ;7800 - 601 albernoa;Albernoa;37.86242;-7.957464;205354;
Escola Básica de Alcáçova, Elvas;R. dos Quarteis  ;7350 - 178 elvas;Elvas;38.881714;-7.1647587;1207154;
Escola Básica de Alcáçovas, Viana do Alentejo;Urb. Chão do Mocho  ;7090 - 000 viana do alentejo;Alcáçovas;38.390293;-8.150032;713124;
Escola Básica de Alcôrrego, Avis;R. da Escola  ;7480 - 028 alcórrego;Alcórrego;39.01922;-7.911705;1203678;
Escola Básica de Aldeia Nova de São Lourenço, Grândola;Canal Caveira  ;7570 - 107 grândola;Canal Caveira;38.133537;-8.48796;1505265;
Escola Básica de Aldeia da Luz, Mourão;Rua da Escola  ;7240 - 100 luz mou;Luz;38.344055;-7.374029;708494;
Escola Básica de Aldeia do Futuro, Grândola;R. 25 de Abril  ;7570 - 165 grândola;Aldeia do Futuro;38.19194;-8.553514;1505727;
Escola Básica de Aldeia dos Chãos, Santiago do Cacém;Aldeia dos Chãos  ;7540 - 060 santiago do cacém;Aldeia dos Chãos;37.98981;-8.690435;1509884;
Escola Básica de Aldeia dos Fernandes, Almodôvar;Av. 25 de Abril  ;7700 - 301 aldeia dos fernandes;Ald. Fernandes;37.5708;-8.169396;202509;
Escola Básica de Alegrete, Portalegre;R. do Jardim  ;7300 - 335 alegrete;Alegrete;39.24077;-7.3228006;1214362;
Escola Básica de Alfundão, Ferreira do Alentejo;Rua das Escolas  ;7900 - 028 alfundão;Alfundão;38.11721;-8.064169;208319;
Escola Básica de Algodor, Mértola;Algodor  ;7750 - 014 alcaria ruiva;Algodor;37.744293;-7.793629;209448;
Escola Básica de Aljustrel;Travessa dos Jungueiros  ;7600 - 032 aljustrel;Aljustrel;37.88177;-8.1621;201001;
Escola Básica de Almodôvar;R. das Escolas  ;7700 - 044 almodôvar;Almodôvar;37.510174;-8.061035;202916;
Escola Básica de Alter do Chão;R. do Reguengo  ;7440 - 076 alter do chão;Alter do Chão;39.201855;-7.6613655;1201957;
Escola Básica de Amareleja, Moura;Lg das Flores  ;7885 - 068 amareleja;Amareleja;38.204155;-7.223364;210453;
Escola Básica de Ameiras de Cima, Grândola;Ameiras de Cima  ;7570 - 000 grândola;Ameiras de Cima;38.22074;-8.556443;1505033;
Escola Básica de Ammaia, Portagem, Marvão;R. das Escolas  ;7330 - 328 são salvador da aramenha;Portagem;39.38387;-7.3870826;1210789;
Escola Básica de Arcos, Estremoz;R. da Estação  ;7100 - 011 arcos etz;Arcos;38.833496;-7.5155478;704704;
Escola Básica de Arraiolos;Rua Cinco de Outubro  ;7040 - 025 arraiolos;Arraiolos;38.725174;-7.9911;702692;
Escola Básica de Arronches;R. Dr. Edmundo Curvelo  ;7340 - 029 arronches;Arronches;39.119766;-7.286723;1202622;
Escola Básica de Assumar, Monforte;R. da Estação  ;7450 - 000 monforte;Assumar;39.140617;-7.391761;1211607;
Escola Básica de Atalaião, Portalegre;Rua Pedro Castro da Silveira  ;7300 - 022 portalegre;Portalegre;39.29188;-7.4213724;1214967;
Escola Básica de Avis;R. de António José de Almeida  ;7480 - 123 avis;Avis;39.05535;-7.890493;1203645;
Escola Básica de Azaruja, Évora;R. João José Perdigão, 20  ;7005 - 119 azaruja;Azaruja;38.70506;-7.780918;705469;
Escola Básica de Bairro 25 de Abril, Moura;Bairro 25 de Abril  ;7860 - 000 moura;Moura;38.13852;-7.4568667;210954;
Escola Básica de Baleizão, Beja;Rua Francisco Miguel Duarte  ;7800 - 611 baleizão;Baleizão;38.024944;-7.7186418;205058;
Escola Básica de Barbacena, Elvas;Caminho de Vila Fernando  ;7350 - 431 barbacena;Barbacena;38.958694;-7.2963963;1207815;
Escola Básica de Barrancos;Rua de Angola  ;7230 - 003 barrancos;Barrancos;38.13294;-6.9787507;204506;
Escola Básica de Benavila, Avis;Largo do Asilo  ;7480 - 206 benavila;Benavila;39.10769;-7.8702774;1203496;
Escola Básica de Bencatel, Vila Viçosa;R. General Humberto Delgado  ;7160 - 050 bencatel;Bencatel;38.744408;-7.454844;714458;
Escola Básica de Beringel, Beja;R. Dr. Carlos Moreira, 27  ;7800 - 812 beringel;Beringel;38.054756;-7.9817996;205657;
Escola Básica de Bicos, Odemira;Rua de Acácio Guerreiro de Melo  ;7630 - 711 bicos;Bicos;37.818573;-8.508169;211860;
Escola Básica de Boavista dos Pinheiros, Odemira;Rua da Escola  ;7630 - 033 boavista dos pinheiros;Boavista dos Pinheiros;37.581905;-8.66557;211412;
Escola Básica de Bombeiros Voluntários, Moura;Av. dos Bombeiros Voluntários  ;7860 - 107 moura;Moura;38.14024;-7.456086;210266;
Escola Básica de Borba;Av. Luis de Camões  ;7150 - 000 borba;Borba;38.804123;-7.4534087;703048;
Escola Básica de Boticos, Santiago do Cacém;Rua 1º de Maio  ;7540 - 021 abela;Foros do Arealão;38.00277;-8.484922;1509802;
Escola Básica de Brejão, Odemira;Brejão  ;7630 - 569 são teotónio;Brejão;37.482704;-8.769292;211299;
Escola Básica de Brescos, Santiago do Cacém;Brescos  ;7500 - 014 vila nova de santo andré;Brescos;38.10196;-8.768594;1509413;
Escola Básica de Brinches, Serpa;R. da Estrada de Serpa  ;7830 - 123 brinches;Brinches;38.034233;-7.6073623;213551;
Escola Básica de Brunheiras, Odemira;Brunheiras  ;7645 - 023 vila nova de milfontes;Vila Nova Milfontes;37.751717;-8.756821;211180;
Escola Básica de Cabeça Gorda, Beja;Av. Alonso Gomes  ;7800 - 631 cabeça gorda;Cabeça Gorda;37.926556;-7.792014;205679;
Escola Básica de Cabeço de Vide, Fronteira;Av. da Libertação, 71  ;7460 - 002 cabeço de vide;Cabeço de Vide;39.12931;-7.5865793;1208333;
Escola Básica de Cabeção, Mora;Rua do Cemitério - Bairro João Lopes Aleixo  ;7490 - 055 cabeção;Cabeção;38.95002;-8.074405;707284;
Escola Básica de Cabrela, Montemor-o-Novo;R. Dr. Gama Franco  ;7050 - 000 montemor-o-novo;Cabrela;38.599247;-8.460745;706070;
Escola Básica de Cadoços, Grândola;Bairro dos Cadoços  ;7570 - 106 grândola;Cadoços;38.16778;-8.524836;1505667;
Escola Básica de Caia e Nave Longa, Portalegre;Beco da Escola  ;7300 - 561 urra;Caia e Nave Longa;39.24475;-7.3683376;1214246;
Escola Básica de Campinho, Reguengos de Monsaraz;R. da Igreja  ;7200 - 515 campinho;Campinho;38.36768;-7.469457;711624;
Escola Básica de Campos dos Infantes, Vendas Novas;Campos dos Infantes  ;7080 - 000 vendas novas;Vendas Novas;38.686607;-8.488151;712494;
Escola Básica de Canhestros, Ferreira do Alentejo;Rua da Escola Nova  ;7900 - 000 ferreira do alentejo;Canhestros;38.03481;-8.287635;208366;
Escola Básica de Cano, Sousel;Av. do Rancho Folclórico  ;7470 - 022 cano;Cano;38.96275;-7.7615895;1215494;
Escola Básica de Carrascal, Vila Viçosa;R. Alferes Marcelino  ;7160 - 281 vila viçosa;Vila Viçosa;38.78026;-7.421314;714901;
Escola Básica de Carvalhal, Grândola;Rua do Paul  ;7570 - 779 carvalhal gdl;Carvalhal;38.3101;-8.744444;1505913;
Escola Básica de Casa Branca, Sousel;Largo Dr. Mâncio Canelas  ;7470 - 119 casa branca;Casa Branca;38.948128;-7.805939;1215016;
Escola Básica de Casebres, Alcácer do Sal;Largo da Igreja  ;7580 - 551 são martinho asl;Casebres;38.527325;-8.494597;1501668;
Escola Básica de Castelo de Vide;Est. da Boavista  ;7320 - 202 castelo de vide;Castelo de Vide;39.413334;-7.4516363;1205446;
Escola Básica de Ciborro, Montemor-o-Novo;Ciborro  ;7050 - 611 ciborro;Ciborro;38.802208;-8.229514;706207;
Escola Básica de Comporta, Alcácer do Sal;Rua da Escola  ;7580 - 630 comporta;Comporta;38.383167;-8.78618;1501495;
Escola Básica de Corte do Pinto, Mértola;Rua Dr. Santos Martins  ;7750 - 102 corte do pinto;Corte do Pinto;37.702015;-7.4787717;209352;
Escola Básica de Cortiçadas do Lavre, Montemor-o-Novo;Bairro das Cortiçadas  ;7050 - 636 cortiçadas de lavre;Cortiçadas do Lavre;38.802895;-8.411952;706064;
Escola Básica de Cruz de João Mendes, Santiago do Cacém;Cruz de João Mendes  ;7540 - 551 são francisco da serra;Cruz de João Mendes;38.090397;-8.63951;1509253;
Escola Básica de Deixa-o-Resto, Santiago do Cacém;Deixa-o-Resto  ;7500 - 018 vila nova de santo andré;Deixa-o-Resto;38.071865;-8.747246;1509647;
Escola Básica de Entradas, Castro Verde;R. de Aljustrel  ;7780 - 170 castro verde;Entradas;37.77691;-8.014418;206710;
Escola Básica de Ermidas do-Sado, Santiago do Cacém;Rua 25 de Abril  ;7565 - 210 ermidas-sado;Ermidas-Sado;38.007175;-8.41199;1509876;
Escola Básica de Ervedal, Avis;R. das Escolas  ;7480 - 000 avis;Ervedal;39.043686;-7.8116403;1203057;
Escola Básica de Ervidel, Aljustrel;R. Escola Coronel Mourão  ;7600 - 210 ervidel;Ervidel;37.964497;-8.083487;201090;
Escola Básica de Esperança, Arronches;Rua da Restauração  ;7340 - 000 arronches;Esperança;39.15782;-7.193089;1202703;
Escola Básica de Faro do Alentejo, Cuba;R. dos Palheiros  ;7940 - 311 faro do alentejo;Faro do Alentejo;38.14735;-7.940855;207168;
Escola Básica de Ferreira do Alentejo;Lg. das Escolas  ;7900 - 566 ferreira do alentejo;Ferreira do Alentejo;38.05786;-8.113978;208057;
Escola Básica de Figueira dos Cavaleiros, Ferreira do Alentejo;R. das Escolas  ;7900 - 251 figueira dos cavaleiros;Figueira dos Cavaleiros;38.095795;-8.206605;208238;
Escola Básica de Figueira e Barros, Avis;R. Afonso Costa  ;7480 - 351 figueira e barros;Figueira e Barros;39.050743;-7.765073;1203846;
Escola Básica de Fojo, Moura;Av. Engenheiro Armando Mansos  ;7860 - 000 moura;Moura;38.141026;-7.4451427;210429;
Escola Básica de Foros de Arrão de Cima, Ponte de Sôr;Rua de Catarina Eufémia  ;7425 - 238 foros de arrão;Foros do Arrão;39.16198;-8.261911;1213014;
Escola Básica de Foros do Galeado, Odemira;Foros do Galeado  ;7645 - 036 vila nova de milfontes;Vila Nova de Milfontes;37.738842;-8.750073;211198;
Escola Básica de Fortios, Portalegre;R. da Boavista  ;7300 - 660 fortios;Fortios;39.323315;-7.497663;1214570;
Escola Básica de Galveias, Ponte de Sôr;R. da Devesa  ;7400 - 023 galveias;Galveias;39.15685;-7.997232;1213327;
Escola Básica de Garvão, Ourique;Rua das Escolas  ;7670 - 000 ourique;Garvão;37.709316;-8.340329;212277;
Escola Básica de Gavião;R. 23 de Novembro  ;6040 - 121 gavião;Gavião;39.463085;-7.9374185;1209689;
Escola Básica de Glória, Estremoz;Aldeia de Mourinhos  ;7100 - 041 glória;Glória;38.800053;-7.5377355;704098;
Escola Básica de Granja, Mourão;Tv. Pública  ;7240 - 012 granja mou;Granja;38.305157;-7.2558894;708047;
Escola Básica de Graça do Divor, Évora;Graça do Divor CX 33  ;7000 - 019 n senhora graça do divor;Graça do Divor;38.655132;-7.9817333;705314;
Escola Básica de Grândola;Rua Nossa Senhora da Penha  ;7570 - 779 carvalhal gdl;Grândola;38.1723;-8.567585;1505126;
Escola Básica de Gáfete, Crato;R. da Fonte Nova  ;7430 - 266 gáfete;Gáfete;39.408745;-7.6842065;1206865;
Escola Básica de Igrejinha, Arraiolos;Largo da Igreja  ;7040 - 207 igrejinha;Igrejinha;38.710323;-7.8994703;702772;
Escola Básica de Ilhas, Arraiolos;R. Sub. Tenente António Benardino Apolónio Piteira  ;7040 - 114 arraiolos;Ilhas;38.717926;-7.969965;702442;
Escola Básica de Landeira, Vendas Novas;R. 25 de Abril  ;2965 - 402 landeira;Landeira;38.595352;-8.650826;712394;
Escola Básica de Lavre, Montemor-o-Novo;Rua da Casa do Povo  ;7050 - 467 lavre;Lavre;38.774826;-8.369984;706743;
Escola Básica de Longomel, Ponte de Sôr;R. Manuel Nunes Marques Adegas  ;7400 - 454 longomel;Longomel;39.333534;-7.991588;1213571;
Escola Básica de Longueira, Odemira;Rua da Escola  ;7630 - 084 longueira-almograve;Longueira;37.657043;-8.775475;211323;
Escola Básica de Lousal, Grândola;Lousal  ;7570 - 006 azinh barros s mam sádão;lousal;38.036777;-8.428197;1505820;
Escola Básica de Luzianes-Gare, Odemira;Luzianes-Gare  ;7665 - 891 luzianes-gare;Luzianes-Gare;37.59207;-8.487002;211487;
Escola Básica de Melides, Grândola;Estrada Nacional 261  ;7570 - 611 melides;Melides;38.147778;-8.729179;1505285;
Escola Básica de Messejana, Aljustrel;Rua Nova da Escola  ;7600 - 344 messejana;Messejana;37.833237;-8.242206;201582;
Escola Básica de Mina de São Domingos, Mértola;Rua Catarina Eufémia  ;7750 - 000 mértola;Mina de S. Domingos;37.67282;-7.4997644;209082;
Escola Básica de Monte Branco, Vendas Novas;Bombel  ;7080 - 303 vendas novas;Bombel;38.685757;-8.513667;712393;
Escola Básica de Monte Trigo, Portel;R. da Escola  ;7220 - 222 monte do trigo;Monte Trigo;38.397842;-7.71399;709723;
Escola Básica de Monte de Carvalho, Portalegre;Monte Carvalho - Ribeira de Nisa - Portalegre  ;7300 - 430 ribeira de nisa;Ribeira de Nisa;39.325172;-7.4199185;1214692;
Escola Básica de Montes Velhos, Aljustrel;Monte Branco  ;7600 - 000 aljustrel;Montes Velhos;37.93932;-8.184511;201282;
Escola Básica de Montes do Pinto, Serpa;R. da Liberdade  ;7830 - 011 vila nova de são bento;A- do Pinto;37.917587;-7.47839;213999;
Escola Básica de Montoito, Redondo;R. Dr. Bento de Jesus Caraça  ;7200 - 053 montoito;Montoito;38.50786;-7.596032;710856;
Escola Básica de Mora;Estrada de Brotas  ;7490 - 206 mora;Mora;38.94042;-8.165902;707621;
Escola Básica de Moura;Av. Poeta Joaquim Costa s/n  ;7860 - 108 moura;Moura;38.142162;-7.4448395;210443;
Escola Básica de Mourão;Zona Expansão Poente  ;7240 - 000 mourão;Mourão;38.38012;-7.345598;708504;
Escola Básica de Mário Beirão, Beja;R. de Maria Isabel Covas Lima  ;7800 - 474 beja;Beja;38.005657;-7.856127;205976;
Escola Básica de Mértola;R. Maria Luisa Sales  ;7750 - 359 mértola;Mértola;37.640984;-7.6615295;209970;
Escola Básica de Neves, Beja;Largo da Escola  ;7800 - 651 nossa senhora das neves;Neves;38.02124;-7.8093047;205191;
Escola Básica de Nisa;R.do Convento  ;6050 - 380 nisa;Nisa;39.51574;-7.6531744;1212468;
Escola Básica de Nossa Senhora de Machede, Évora;R. S. Miguel, 15  ;7000 - 050 nossa sra. de machede;Nossa Sra. de Machede;38.579517;-7.773251;705242;
Escola Básica de Odemira;Largo Sousa Prado, 6  ;7630 - 138 odemira;Odemira;37.59796;-8.6424055;211347;
Escola Básica de Odivelas, Ferreira do Alentejo;R. do Poço  ;7900 - 394 odivelas fal;Odivelas;38.166397;-8.149483;208683;
Escola Básica de Olival Queimado, Alcácer do Sal;Rua da Escola  ;7580 - 000 alcácer do sal;Bairro do Olival Queimado;38.395332;-8.515003;1501643;
Escola Básica de Orada, Borba;Avenida Combatentes do Ultramar  ;7150 - 308 orada;Orada;38.87312;-7.466425;703249;
Escola Básica de Oriola, Portel;Rua do Outeiro  ;7220 - 301 oriola;Oriola;38.319572;-7.8672543;709498;
Escola Básica de Ourique;R. Frei Amador Arrais  ;7670 - 288 ourique;Ourique;37.651608;-8.225619;212547;
Escola Básica de Outeiro, Reguengos de Monsaraz;Rua da Escola  ;7200 - 179 monsaraz;Outeiro;38.46817;-7.3831496;711286;
Escola Básica de Palma, Alcácer do Sal;Herdade de Palma  ;7580 - 325 alcácer do sal;Alcacer do Sal;38.482533;-8.595615;1501407;
Escola Básica de Pavia, Mora;Rua das Casas Novas  ;7490 - 431 pavia;Pavia;38.89158;-8.017732;707035;
Escola Básica de Pedrogão, Vidigueira;R. 25 de Abril  ;7960 - 000 vidigueira;Pedrógão;38.1215;-7.6495795;214011;
Escola Básica de Penedo Gordo, Beja;R. das Cavadas  ;7800 - 354 beja;Penedo Gordo;37.98617;-7.9144464;205466;
Escola Básica de Penilhos, Mértola;Penilos  ;7750 - 510 são joão dos caldeireiros;Penilhos;37.6423;-7.8522835;209046;
Escola Básica de Perolivas, Reguengos de Monsaraz;R. da Escola  ;7200 - 457 reguengos de monsaraz;Perolivas;38.413574;-7.5691414;711220;
Escola Básica de Pias, Alandroal;Rua dos Quintais  ;7200 - 012 santiago maior;Pias;38.545322;-7.481844;701012;
Escola Básica de Pias, Serpa;Rua Dr. António Sergio, 26  ;7830 - 219 pias srp;Pias;38.024773;-7.478265;213575;
Escola Básica de Ponte de Sôr;Av. do Colégio  ;7400 - 221 ponte de sor;Ponte de Sôr;39.25191;-8.010857;1213330;
Escola Básica de Portel;R. da Vidigueira  ;7220 - 390 portel;Portel;38.30891;-7.707857;709310;
Escola Básica de Porto Côvo, Sines;Estrada Principal  ;7520 - 437 porto covo;Porto Côvo;37.852287;-8.790683;1513416;
Escola Básica de Póvoa de São Miguel, Moura;Estrada Nacional 386  ;7885 - 000 amareleja;Póvoa de S. Miguel;38.223705;-7.338685;210107;
Escola Básica de Reguengo, Portalegre;Lg. da Igreja  ;7300 - 405 reguengo;Reguengo;39.297134;-7.3924026;1214785;
Escola Básica de Relvas Verdes, Santiago do Cacém;Relvas Verdes  ;7540 - 240 santiago do cacém;Relvas Verdes;37.9986;-8.73667;1509258;
Escola Básica de Relíquias, Odemira;Rua da Igreja  ;7630 - 392 relíquias;Relíquias;37.70111;-8.485552;211105;
Escola Básica de Rio de Moinhos, Borba;Rua de Estremoz  ;7150 - 000 borba;Rio de Moinhos;38.771885;-7.503671;703588;
Escola Básica de Rosário, Almodôvar;Rua da Escola, apartado 3  ;7700 - 235 rosário;Rosário;37.605953;-8.08232;202279;
Escola Básica de Sabugueiro, Arraiolos;R. da Escola  ;7040 - 712 sabugueiro arl;Sabugueiro;38.76332;-8.121986;702104;
Escola Básica de Safara, Moura;Rua 1º de Dezembro  ;7875 - 075 safara;Safara;38.10708;-7.218611;210317;
Escola Básica de Salvada, Beja;R. da Estr. Nova  ;7800 - 698 salvada;Salvada;37.93789;-7.777604;205005;
Escola Básica de Santa Bárbara de Padrões, Castro Verde;Av Zeca Afonso 12  ;7780 - 450 santa bárbara de padrões;Santa Bárbara de Padrões;37.63527;-7.987138;206832;
Escola Básica de Santa Clara do Louredo, Beja;Travessa da Escola  ;7800 - 721 santa clara de louredo;Santa Clara de Louredo;37.970665;-7.873397;205242;
Escola Básica de Santa Clara, Évora;R. de Santa Clara, nº 2  ;7000 - 517 évora;Évora;38.571396;-7.912386;705644;
Escola Básica de Santa Clara-a-Nova, Almodôvar;Rua da Portela  ;7700 - 240 santa clara-a-nova;Santa Clara-a-Nova;37.49021;-8.143493;202295;
Escola Básica de Santa Clara-a-Velha, Odemira;R. da Escola  ;7665 - 880 santa clara-a-velha;Santa Clara-a-Velha;37.51322;-8.474473;211551;
Escola Básica de Santa Cruz, Santiago do Cacém;Santa Cruz  ;7540 - 051 santa cruz stc;Santa Cruz;38.051395;-8.708749;1509600;
Escola Básica de Santa Eulália, Elvas;Av. Augusto de Andrade, 24  ;7350 - 451 santa eulália elv;Santa Eulália;39.00621;-7.2514396;1207270;
Escola Básica de Santa Luzia, Elvas;Av. D. Sancho Manuel  ;7350 - 098 elvas;Elvas;38.874306;-7.1683903;1207038;
Escola Básica de Santa Margarida do Sado, Ferreira do Alentejo;Rua da Escola  ;7900 - 298 figueira dos cavaleiros;Santa Margarida do Sado;38.11158;-8.357768;208280;
Escola Básica de Santa Maria, Beja;Rua  Fernando Pessoa, s/nº  ;7800 - 181 beja;Beja;38.019993;-7.8637934;205458;
Escola Básica de Santa Vitória do Ameixial, Estremoz;R. Dr. Rosado da Fonseca  ;7100 - 405 santa vitória do ameixial;Santa Vitória do Ameixial;38.897987;-7.6752534;704345;
Escola Básica de Santa Vitória, Beja;R. 25 de Abril  ;7800 - 732 santa vitória;Santa Vitória;37.965023;-8.02308;205088;
Escola Básica de Santana da Serra, Ourique;Santana da Serra  ;7670 - 613 santana da serra;Santana da Serra;37.5016;-8.301963;212207;
Escola Básica de Santana de Cambas, Mértola;Rua Armando Sequeira Valente  ;7750 - 413 santana de cambas;Santana de Cambas;37.62297;-7.5263424;209727;
Escola Básica de Santana, Portel;Estrada da Escola  ;7220 - 481 santana prl;Santana;38.2685;-7.7986784;709898;
Escola Básica de Santiago Maior, Beja;Avenida Comand. Ramiro Correia  ;7800 - 261 beja;Beja;38.018436;-7.874036;205335;
Escola Básica de Santiago de Escoural, Montemor-o-Novo;R. Vasco da Gama, 64  ;7050 - 556 santiago do escoural;Santiago do Escoural;38.53894;-8.167595;706764;
Escola Básica de Santo Aleixo da Restauração, Moura;Rua do Calvário  ;7875 - 172 sto aleixo da restauração;Stº Aleixo da Restauração;38.065304;-7.152375;210687;
Escola Básica de Santo Aleixo, Monforte;R. 25 de Abril  ;7450 - 000 monforte;Santo Aleixo;38 922;-7.419402;1211855;
Escola Básica de Santo Amador, Moura;R. das Escolas  ;7875 - 255 santo amador;Santo Amador;38.133884;-7.3077173;210377;
Escola Básica de Santo Amaro, Sousel;R. das Escolas  ;7470 - 155 santo amaro ssl;Santo Amaro;38.970036;-7.5831146;1215510;
Escola Básica de Selmes, Vidigueira;R. de S. João  ;7960 - 171 selmes;Selmes;38.14585;-7.761471;214194;
Escola Básica de Serpa;R. Dr. Edgar Pires Valadas  ;7830 - 000 serpa;SERPA;37.93979;-7.59093;213001;
Escola Básica de Sete e Meio, Moura;Bairro do Sete e Meio  ;7860 - 000 moura;Moura;38.146706;-7.4521747;210718;
Escola Básica de Sobral da Adiça, Moura;R. das Escolas  ;7875 - 382 sobral da adiça;Sobral da Adiça;38.02006;-7.260037;210831;
Escola Básica de Sousel;Av. 25 de Abril  ;7470 - 203 sousel;Sousel;38.95161;-7.6755114;1215144;
Escola Básica de São Bartolomeu da Serra, Santiago do Cacém;Rua 25 de Abril  ;7540 - 321 são bartolomeu da serra;S. Bartolomeu da Serra;38.01781;-8.6167965;1509648;
Escola Básica de São Bento do Cortiço, Estremoz;R. Pedreira  ;7100 - 630 são bento do cortiço;S. Bento do Cortiço -Caixa Postal 926;38.925358;-7.5730057;704207;
Escola Básica de São Cristovão, Montemor-o-Novo;Rua da Escola  ;7050 - 600 são cristóvão;S. Cristovão;38.492085;-8.306866;706489;
Escola Básica de São Domingos da Serra, Santiago do Cacém;R. da Liberdade, 47  ;7540 - 415 são domingos;S. Domingos da Serra;37.927837;-8.538474;1509983;
Escola Básica de São Domingos de Ana Loura, Estremoz;S Domingos de Ana Loura  ;7100 - 000 estremoz;S. Domingos de Ana Loura;38.863853;-7.502155;704825;
Escola Básica de São Luís, Odemira;São Luís  ;7630 - 474 são luís;São Luís;37.71722;-8.663995;211121;
Escola Básica de São Mamede, Évora;Lg. Dr. Evaristo Cutileiro  ;7000 - 577 évora;Évora;38.574398;-7.907159;705953;
Escola Básica de São Manços, Évora;Rua do Sol, nº 29  ;7000 - 115 s. manços;S. Manços;38.460106;-7.7517786;705493;
Escola Básica de São Marcos da Ataboeira, Castro Verde;Caminho Municipal  ;7780 - 000 castro verde;S. Marcos de Atabueira;37.70635;-7.938504;206885;
Escola Básica de São Marcos do Campo, Reguengos de Monsaraz;Rua de Moura  ;7200 - 072 campo rmz;S. Marcos do Campo;38.338394;-7.510467;711226;
Escola Básica de São Martinho das Amoreiras, Odemira;R. do Passal  ;7630 - 536 s martinho das amoreiras;S. Martinho das Amoreiras;37.65116;-8.403605;211947;
Escola Básica de São Mateus, Montemor-o-Novo;S. Mateus  ;7050 - 352 montemor-o-novo;S. Mateus;38.619278;-8.215224;706727;
Escola Básica de São Matias, Beja;Lg. da Escola  ;7800 - 751 são matias bja;S. Matias;38.1086;-7.856361;205465;
Escola Básica de São Miguel de Machede, Évora;Lg. da Escola  ;7005 - 760 são miguel de machede;S. Miguel de Machede;38.644444;-7.728229;705905;
Escola Básica de São Miguel do Pinheiro, Mértola;Rua de São Miguel  ;7750 - 628 são miguel do pinheiro;S. Miguel do Pinheiro;37.54389;-7.8375072;209390;
Escola Básica de São Pedro da Gafanhoeira, Arraiolos;S Pedro da Gafanhoeira  ;7040 - 000 arraiolos;S Pedro da Gafanhoeira;38.74217;-8.075401;702082;
Escola Básica de São Pedro do Corval, Reguengos de Monsaraz;R. do Jardim  ;7200 - 000 reguengos de monsaraz;S. Pedro do Corval;38.449043;-7.4848223;711405;
Escola Básica de São Romão, Vila Viçosa;S Romao  ;7160 - 000 vila viçosa;S. Romão;38.775497;-7.318316;714981;
Escola Básica de São Sebastião da Giesteira, Évora;Rua da Escola  ;7000 - 202 s sebastião da giesteira;S. Sebastião da Giesteira;38.58421;-8.102662;705889;
Escola Básica de São Teotónio, Odemira;Av. das Escolas  ;7630 - 623 são teotónio;S. Teotónio;37.511185;-8.703798;211182;
Escola Básica de São Vicente, Elvas;R. Nova do Poente  ;7350 - 481 são vicente e ventosa;S. Vicente;38.95185;-7.2150946;1207070;
Escola Básica de Telhada, Almodôvar;Telhada  ;7700 - 253 santa cruz adv;Telhada;37.429977;-7.9979677;202341;
Escola Básica de Terena, Alandroal;Av. Humberto Delgado, 4  ;7250 - 065 terena;Terena;38.619064;-7.412251;701627;
Escola Básica de Terrugem, Elvas;Ramal das Laranjeiras  ;7350 - 491 terrugem elv;Terrugem;38.84516;-7.34785;1207137;
Escola Básica de Torre dos Coelheiros, Évora;Largo dos Coguminhos  ;7005 - 779 torre de coelheiros;Torre dos Coelheiros;38.412224;-7.8361154;705006;
Escola Básica de Torrão, Alcácer do Sal;Rua Dr. Bento Jesus Caraça  ;7595 - 168 torrão;TORRÃO;38.29154;-8.22416;45057;
Escola Básica de Tramaga, Ponte de Sôr;R. Principal   ;7400 - 604 tramaga;Tramaga;39.224728;-8.032395;1213553;
Escola Básica de Trigaches, Beja;R. Caminho da Fonte  ;7800 - 771 trigaches;Trigaches;38.089035;-7.9723816;205710;
Escola Básica de Urra, Portalegre;Av. 25 de Abril  ;7300 - 576 urra;Urra;39.225937;-7.4000454;1214697;
Escola Básica de Vaiamonte, Monforte;Bairro Novo  ;7450 - 000 monforte;Vaiamonte;39.093212;-7.509862;1211777;
Escola Básica de Vale de Açor, Ponte de Sôr;R. João de Deus  ;7400 - 550 vale de açor;Vale de Açor;39.250767;-7.926936;1213165;
Escola Básica de Vale de Figueira, Montemor-o-Novo;Rua Catarina Eufémia  ;7050 - 704 foros de vale de figueira;Vale de Figueira;38.720387;-8.322922;706642;
Escola Básica de Vale de Vargo, Serpa;R. dos Lagares, 1 e 3  ;7830 - 520 vale de vargo;Vale de Vargo;37.98429;-7.4108176;213523;
Escola Básica de Vale de Água, Santiago do Cacém;R. José Brissos Pereira  ;7540 - 610 vale de água;Vale de Água;37.903362;-8.58934;1509898;
Escola Básica de Vales Mortos, Serpa;Rua da Escola s/n.º Vales Mortos  ;7830 - 000 serpa;Vales Mortos;37.805344;-7.498908;213226;
Escola Básica de Valverde, Évora;Largo da Escola  ;7000 - 093 nossa senhora da tourega;Valverde;38.532764;-8.021435;705134;
Escola Básica de Veiros, Estremoz;Rua Nossa Senhora do Mileu  ;7100 - 697 veiros etz;Veiros;38.95479;-7.5079007;704777;
Escola Básica de Vendas, Montemor-o-Novo;Silveiras - Vendas  ;7050 - 677 silveiras;Silveiras;38.65135;-8.345618;706591;
Escola Básica de Vendinha, Évora;Vendinha  ;7200 - 042 são vicente do pigeiro;Vendinha;38.453697;-7.644281;705888;
Escola Básica de Viana do Alentejo;R. Dr. António José de Almeida  ;7090 - 269 viana do alentejo;Viana do Alentejo;38.334442;-8.001717;713998;
Escola Básica de Vila Alva, Cuba;R. Dr. Fernandes Dias de Sousa  ;7940 - 385 vila alva;Vila Alva;38.24784;-7.90088;207173;
Escola Básica de Vila Boim, Elvas;Rossio 25 de Abril  ;7350 - 501 vila boim;Vila Boim;38.863354;-7.2745953;1207836;
Escola Básica de Vila Fernando, Elvas;Est Nacional 243  ;7350 - 511 vila fernando elv;Vila Fernando;38.915684;-7.320114;1207189;
Escola Básica de Vila Nova de Baronia, Alvito;R. D. Nuno Alvares Pereira 1  ;7920 - 000 alvito;Vila Nova de Bavonia;38.29126;-8.03815;203288;
Escola Básica de Vila Nova de Milfontes, Odemira;Rua Artur Horta  ;7645 - 224 vila nova de milfontes;Vila Nova Milfontes;37.726353;-8.780049;211135;
Escola Básica de Vila Verde de Ficalho, Serpa;R. da Fábrica  ;7830 - 637 vila verde de ficalho;Vila Verde de Ficalho;37.947323;-7.2981725;213604;
Escola Básica de Vila de Frades, Vidigueira;R. Prof. Cristo Fragoso  ;7960 - 457 vila de frades;Vila de Frades;38.212097;-7.8210535;214794;
Escola Básica de Vimieiro, Arraiolos;Rua Nova das Escolas  ;7040 - 663 vimieiro arl;Vimieiro;38.830986;-7.841337;702787;
Escola Básica de Zambujeira do Mar, Odemira;Rua Mira Mar  ;7630 - 789 zambujeira do mar;Zambujeira do Mar;37.524837;-8.7843275;211513;
Escola Básica de Água Derramada, Grândola;Água Derramada  ;7570 - 101 grândola;Água Derramada;38.210754;-8.442811;1505097;
Escola Básica de Évora Monte, Estremoz;R. das Correias  ;7100 - 202 évora monte;Évora Monte;38.764088;-7.7153897;704200;
Escola Básica do Bairro Novo, Campo Maior;Av. Combatentes da G. Guerra  ;7370 - 050 campo maior;Campo Maior;39.013493;-7.0650597;1204525;
Escola Básica do Bairro da Comenda, Évora;Rua Padre Americo Bairro da Comenda  ;7000 - 702 évora;Évora;38.57438;-7.8908653;705591;
Escola Básica do Bairro da Câmara, Évora;Lg. Nª Sra. da Conceição  ;7000 - 702 évora;Évora;38.57074;-7.899799;705504;
Escola Básica do Bairro da Senhora da Glória, Évora;Av. dos Salesianos - Bairro Nossa Sra. da Glória  ;7000 - 726 évora;Évora;38.56958;-7.920346;705808;
Escola Básica do Bairro de Almeirim, Évora;Lg. S. João Bosco  ;7005 - 604 évora;Bairro de Almeirim;38.545307;-7.8990746;705067;
Escola Básica do Bairro do Bacelo, Évora;Rua José Santos Luz  ;7005 - 152 évora;Bacelo Oeste;38.5914;-7.912184;705030;
Escola Básica do Bairro do Frei Aleixo, Évora;Bairro do Frei Aleixo  ;7000 - 000 évora;Évora;38.586327;-7.9007387;705434;
Escola Básica do Caldeiro, Estremoz;Estrada Nacional ao Caldeiro, 18  ;7100 - 069 estremoz;Estremoz;38.847206;-7.5916886;704244;
Escola Básica do Castelo, Vila Viçosa;Av. Duques de Bragança  ;7160 - 209 vila viçosa;Vila Viçosa;38.77863;-7.415075;714655;
Escola Básica do Chafariz D´El-Rei, Évora;Largo S. Brás do Regedouro  ;7000 - 931 évora;Évora;38.56718;-7.9006124;705340;
Escola Básica do Rossio de São Brás, Évora;Rossio de S. Brás  ;7000 - 743 évora;Évora;38.566483;-7.9056363;705256;
Escola Básica dos Assentos, Portalegre;Rua Dr. António Ferro  ;7300 - 207 portalegre;Portalegre;39.280754;-7.428532;1214902;
Escola Básica dos Campos da Misericórdia, Vendas Novas;Rua Bento Gonçalves -Campos da Misericordia  ;7080 - 317 campos da misericórdia;Campos da Misericórdia;38.674564;-8.473045;712707;
Escola Básica dos Campos da Rainha, Vendas Novas;Rua António Filipe Janeiro Santana  ;7080 - 000 vendas novas;Campos da Rainha;38.6812;-8.443031;712796;
Escola Básica dos Canaviais, Évora;Rua da Palmeira  ;7005 - 366 évora;ÉVORA;38.61041;-7.904283;296790;
Escola Básica e Secundária Cunha Rivara, Arraiolos;R. 5 de Outubro  ;7040 - 028 arraiolos;Arraiolos;38.725395;-7.991074;702889;
Escola Básica e Secundária Dr. Hernâni Cidade, Redondo;Avª Dr. Domingos Rosado  ;7170 - 029 redondo;Redondo;38.643517;-7.547915;710605;
Escola Básica e Secundária Dr. Isidoro de Sousa, Viana do Alentejo;Estrada da Qt. de Stª Maria  ;7090 - 000 viana do alentejo;Viana do Alentejo;38.33832;-8.008283;713804;
Escola Básica e Secundária Dr. João Brito Camacho, Almodôvar;R. da Ponte Romana - Apartado 1  ;7700 - 018 almodôvar;Almodôvar;37.512512;-8.055901;202249;
Escola Básica e Secundária José Gomes Ferreira, Ferreira do Alentejo;R. Infante D. Henrique  ;7900 - 647 ferreira do alentejo;Ferreira do Alentejo;38.062733;-8.115177;208469;
Escola Básica e Secundária Padre José Agostinho Rodrigues, Alter do Chão;Rua  Mabília de Freitas Martins  ;7440 - 020 alter do chão;Alter do Chão;39.19682;-7.662047;1201458;
Escola Básica e Secundária Prof. Mendes dos Remédios, Nisa;R. Prof. João Porto  ;6050 - 344 nisa;Nisa;39.510143;-7.6482944;1212795;
Escola Básica e Secundária de Mora;Estrada de Brotas  ;7490 - 000 mora;Mora;38.93987;-8.1661215;707735;
Escola Básica e Secundária de Ourique, Ourique;Estrada de Garvão  ;7670 - 253 ourique;Ourique;37.650436;-8.228506;212724;
Escola Básica e Secundária de São Sebastião, Mértola;Achada de S. Sebastião  ;7750 - 335 mértola;Mértola;37.64383;-7.654675;209872;
Escola Básica n.º 1 de Alcácer do Sal;R. João Alves Sá Branco  ;7580 - 161 alcácer do sal;Alcácer do Sal;38.371586;-8.501704;1501319;
Escola Básica n.º 1 de Alvito;Tapadinha de Dom António  ;7920 - 000 alvito;ALVITO;38.25975;-7.992195;43474;
Escola Básica n.º 1 de Castro Verde;Av. 25 de Abril  ;7780 - 139 castro verde;Castro Verde;37.701397;-8.088364;206845;
Escola Básica n.º 1 de Cercal do Alentejo, Santiago do Cacém;Estrada de Colos  ;7555 - 108 cercal do alentejo;Cercal do Alentejo;37.798916;-8.667591;1509053;
Escola Básica n.º 1 de Elvas;Avenida Infante D. Henrique  ;7350 - 100 elvas;Elvas;38.87131;-7.167967;1207287;
Escola Básica n.º 1 de Monforte;Rua Professor Dr. Rosado Correia  ;7450 - 000 monforte;Monforte;39.054176;-7.4325237;1211428;
Escola Básica n.º 1 de Montargil, Ponte de Sôr;Largo General Humberto Delgado  ;7425 - 104 montargil;Montargil;39.077747;-8.176877;1213106;
Escola Básica n.º 1 de Montemor-o-Novo;Av. Albino Cró Pimenta de Aguiar  ;7050 - 000 montemor-o-novo;Montemor-o-Novo;38.650043;-8.214352;706181;
Escola Básica n.º 1 de Reguengos de Monsaraz;Urb. Quinta Nova  ;7200 - 204 reguengos de monsaraz;Reguengos Monsaraz;38.429146;-7.5276814;711254;
Escola Básica n.º 1 de Saboia, Odemira;Saboia  ;7665 - 824 sabóia;Saboia;37.49744;-8.498368;211358;
Escola Básica n.º 1 de Santo André, Santiago do Cacém;Bairro Pôr do Sol  ;7500 - 190 vila nova de santo andré;Santo André;38.06382;-8.78969;1509628;
Escola Básica n.º 1 de Sines;R. da Reforma Agrária  ;7521 - 902 sines;Sines;37.957268;-8.870794;1513457;
Escola Básica n.º 1 de Vendas Novas;Av 25 de Abril - Apartado 48  ;7080 - 136 vendas novas;Vendas Novas;38.67425;-8.459706;712269;
Escola Básica n.º 1 de Vila Nova de S. Bento, Serpa;Largo do Rossio Grande  ;7830 - 055 vila nova de são bento;Vila Nova de S. Bento;37.92904;-7.406958;213345;
Escola Básica n.º 2 de Alcácer do Sal;Bairro do Morgadinho  ;7580 - 056 alcácer do sal;Alcácer do Sal;38.37404;-8.514879;1501744;
Escola Básica n.º 2 de Castro Verde;Rua D. Manuel I 2 ;7780 - 139 castro verde;Castro Verde;37.70252;-8.081923;69607;
Escola Básica n.º 2 de Cercal do Alentejo, Santiago do Cacém;R. da Bica Santa  ;7555 - 117 cercal do alentejo;Cercal do Alentejo;37.796974;-8.675929;1509631;
Escola Básica n.º 2 de Elvas;Est Nacional 373 - Apartado 123  ;7350 - 231 elvas;Elvas;38.88575;-7.1520734;1207010;
Escola Básica n.º 2 de Monforte;R. da Fonte do Chão  ;7450 - 118 monforte;Monforte;39.05367;-7.4345183;1211187;
Escola Básica n.º 2 de Montargil, Ponte de Sôr;Lg. General Humberto Delgado  ;7425 - 104 montargil;Montargil;39.07866;-8.176554;1213264;
Escola Básica n.º 2 de Montemor-o-Novo;Largo da Escola Velha  ;7050 - 115 montemor-o-novo;Montemor-o-Novo;38.645042;-8.216495;706004;
Escola Básica n.º 2 de Reguengos de Monsaraz;Lg. do Poço do Príncipe  ;7200 - 332 reguengos de monsaraz;Reguengos de Monsaraz;38.426575;-7.5390925;711357;
Escola Básica n.º 2 de Saboia, Odemira;Av. António Manuel Ribeiro  ;7665 - 000 sabóia;Sabóia;37.496593;-8.4978285;211927;
Escola Básica n.º 2 de Santo André, Santiago do Cacém;Bairro das Panteras, Rua da Maré Cheia  ;7500 - 140 vila nova de santo andré;Vila Nova de Santo André;38.063107;-8.781479;1509421;
Escola Básica n.º 2 de Sines;Quinta dos Passarinhos  ;7520 - 164 sines;Sines;37.956715;-8.858022;1513908;
Escola Básica n.º 2 de Vendas Novas;R. Prof. Bento de Jesus Caraça  ;7080 - 000 vendas novas;Vendas Novas;38.67683;-8.459979;712327;
Escola Básica n.º 2 de Vila Nova de S. Bento, Serpa;Avenida da Liberdade  ;7830 - 055 vila nova de são bento;Vila Nova de S. Bento;37.928745;-7.4099813;213074;
Escola Básica n.º 3 de Cercal do Alentejo, Santiago do Cacém;Rua dos Centenários da Independência  ;7555 - 000 cercal do alentejo;Cercal do Alentejo;37.799545;-8.674512;1509428;
Escola Básica n.º 3 de Montemor-o-Novo;R. Comandante Fragoso  ;7050 - 163 montemor-o-novo;Montemor-o-Novo;38.64883;-8.217565;706537;
Escola Básica n.º 3 de Santo André, Santiago do Cacém;Bairro do Pinhal  ;7500 - 180 vila nova de santo andré;Vila Nova de Santo André;38.05402;-8.780474;1509796;
Escola Básica n.º 3 de Sines;Rua Raúl Solnado   ;7520 - 059 sines;Montes Chãos;37.953087;-8.851894;1513464;
Escola Básica n.º 4 de Montemor-o-Novo;R. Avis  ;7050 - 000 montemor-o-novo;Montemor-o-Novo;38.651535;-8.214234;706684;
Escola Básica n.º 4 de Santo André, Santiago do Cacém;Bairro do Pôr do Sol  ;7500 - 190 vila nova de santo andré;Santo André;38.06304;-8.790445;1509441;
Escola Profissional Abreu Callado;Estrada Municipal - Benavila  ;7480 - 250 benavila;Avis;39.10611;-7.878528;1203188;
Escola Profissional Agostinho Roseta (Delegação);Largo do Castelo  ;7430 - 127 crato;Crato;39.28563;-7.64303;1206084;
Escola Profissional Alsud;Achada de S. Sebastião - (Antigo Ciclo Preparatório de Mértola)  ;7750 - 295 mértola;Mértola;37.64251;-7.655923;209763;
Escola Profissional Bento de Jesus Caraça (Deleg.);Rua D. Manuel I, Nº 19 1º  ;7800 - 306 beja;Beja;38.016582;-7.8659935;205651;
Escola Profissional Fialho de Almeida (Sede);Largo da Matriz  ;7960 - 214 vidigueira;Vidigueira;38.21252;-7.800843;214503;
Escola Profissional da Região Alentejo (Deleg.);Largo dos Combatentes da Grande Guerra, 6  ;7100 - 111 estremoz;Estremoz;38.843044;-7.587337;704578;
Escola Profissional da Região Alentejo (Sede);Av. Dinis Miranda, 116  ;7005 - 140 évora;Évora;38.565815;-7.911363;705936;
Escola Profissional de Alvito;Rua da Maceira  ;7920 - 037 alvito;Alvito;38.255005;-7.994215;203744;
Escola Profissional de Cuba;Alameda Bento de Jesus Caraça  ;7940 - 000 cuba;Cuba;38.161446;-7.891896;207276;
Escola Profissional de Desenvolvimento Rural de Alter do Chão;Coudelaria de Alter - Apartado 20  ;7440 - 999 alter do chão;Coutada do Arneiro;39.221268;-7.687778;1202000;
Escola Profissional de Desenvolvimento Rural de Grândola;Av. António Inácio da Cruz  ;7570 - 185 grândola;Grândola;38.170803;-8.559646;1505849;
Escola Profissional de Desenvolvimento Rural de Serpa;Herdade da Bemposta - Apartado 26  ;7830 - 000 serpa;Serpa;37.957573;-7.615131;213737;
Escola Profissional de Moura;Rua Henrique José Pinto s/n.º - Apartado 52  ;7860 - 000 moura;Moura;38.13525;-7.4485855;210262;
Escola Profissional de Odemira;Horta dos Reis - Apartado 124  ;7630 - 124 odemira;Odemira;37.598618;-8.631346;211532;
Escola Secundária André de Gouveia, Évora;Bairro Sra. da Glória - Pç. Angra do Heroísmo  ;7000 - 721 évora;Évora;38.568237;-7.921332;705100;
Escola Secundária António Inácio Cruz, Grândola;Avenida António Inácio Cruz  ;7570 - 185 grândola;Grândola;38.170082;-8.557896;1505447;
Escola Secundária Conde de Monsaraz, Reguengos de Monsaraz;R. João de Deus  ;7200 - 357 reguengos de monsaraz;Reguengos de Monsaraz;38.42837;-7.533733;711267;
Escola Secundária D. Manuel I, Beja;R. de S. João de Deus  ;7800 - 478 beja;Beja;38.00772;-7.865776;205017;
Escola Secundária D. Sancho II, Elvas;Rua de S. Paulo  ;7350 - 160 elvas;Elvas;38.8768;-7.1728163;1207924;
Escola Secundária Diogo de Gouveia, Beja;R. Luís de Camões  ;7800 - 508 beja;Beja;38.01073;-7.863572;205196;
Escola Secundária Dr. Manuel Candeias Gonçalves, Odemira;Horta dos Reis - Apartado 29  ;7630 - 000 odemira;Odemira;37.59633;-8.631633;211349;
Escola Secundária Gabriel Pereira, Évora;R. Dr. Domingos Rosado  ;7005 - 469 évora;Évora;38.574505;-7.9029093;705810;
Escola Secundária Manuel da Fonseca, Santiago do Cacém;Estrada de Santa Cruz   ;7540 - 121 santiago do cacém;Santiago do Cacém;38.02302;-8.693651;1509172;
Escola Secundária Mouzinho da Silveira, Portalegre;Estrada do Bonfim  ;7300 - 207 portalegre;Portalegre;39.303314;-7.4327145;1214002;
Escola Secundária Padre António Macedo, Santiago do Cacém;Bairro do Liceu  ;7500 - 160 vila nova de santo andré;Vila Nova de Santo André;38.06183;-8.779758;1509127;
Escola Secundária Poeta Al Berto, Sines;Monte Chãos - Apartado 180  ;7520 - 001 sines;Sines;37.953545;-8.852695;1513749;
Escola Secundária Públia Hortênsia de Castro, Vila Viçosa;Rua Horta do Reguengo  ;7160 - 000 vila viçosa;Vila Viçosa;38.78005;-7.425084;714317;
Escola Secundária Rainha Santa Isabel, Estremoz;R. Prof. Egas Moniz  ;7100 - 129 estremoz;Estremoz;38.84956;-7.5871964;704665;
Escola Secundária Severim de Faria, Évora;Estrada das Alcáçovas  ;7005 - 206 évora;Évora;38.565483;-7.917576;705209;
Escola Secundária de Alcácer do Sal;Estrada Senhor dos Mártires  ;7580 - 131 alcácer do sal;Alcácer do Sal;38.37248;-8.51752;1501557;
Escola Secundária de Aljustrel;Rua de Beja - Apartado 48  ;7600 - 909 aljustrel;Aljustrel;37.88084;-8.158301;201427;
Escola Secundária de Campo Maior;R. D. João de Portugal, 1  ;7370 - 110 campo maior;Campo Maior;39.018524;-7.064864;1204743;
Escola Secundária de Castro Verde;R. Dr. José Gomes Ferreira  ;7780 - 102 castro verde;Castro Verde;37.703156;-8.089092;206205;
Escola Secundária de Montemor-o-Novo;Rua Dr. João Luís Ricardo  ;7050 - 252 montemor-o-novo;Montemor-o-Novo;38.645912;-8.211097;706601;
Escola Secundária de Moura;Avenida Poeta Joaquim Costa  ;7860 - 108 moura;Moura;38.142056;-7.4432597;210956;
Escola Secundária de Ponte de Sôr;R. General Humberto Delgado  ;7400 - 259 ponte de sor;Ponte de Sôr;39.25533;-8.015683;1213791;
Escola Secundária de S. Lourenço, Portalegre;Avenida George Robinson  ;7300 - 070 portalegre;Portalegre;39.295177;-7.426417;1214234;
Escola Secundária de Serpa;Rua José Maria da Graça Affreixo  ;7830 - 358 serpa;Serpa;37.93966;-7.5989923;213327;
Escola Secundária de Vendas Novas;Avenida 25 de Abril, nº 21  ;7080 - 134 vendas novas;Vendas Novas;38.674294;-8.458779;712292;
Escola Tecnológica Artística e Profissional de Nisa;Rua Prof. João Maria Porto  ;6050 - 344 nisa;Nisa;39.509403;-7.647225;1212847;
Escola Tecnológica do Litoral Alentejano;Complexo Petroquímico - Apartado 41  ;7520 - 999 sines;Sines;37.983322;-8.832456;1513649;
Escola das Artes de Sines;Av. General Humberto Delgado - Largo da Estação ;;;;;;
0;7520 - 001 sines;Sines;37.958862;-8.864669;1513846;;
Escola de Artes do Norte Alentejano - Portalegre;Largo da Misericórdia  ;7300 - 092 portalegre;Portalegre;39.291748;-7.4324336;1214536;
Escola de Artes do Norte Alentejo-Portalegre - Secção de Ponte de Sor;Rua João de Deus  ;7400 - 263 ponte de sor;Ponte de Sor;39.24846;-8.009041;1213652;
Escola de Hotelaria e Turismo de Portalegre;Fábrica Robinson - Largo do Jardim Operário, 5  ;7300 - 207 portalegre;Portalegre;39.289272;-7.425865;1214462;
"Externato ""António Sérgio""";Pç. Dr. Carlos Moreira, nº 4  ;7800 - 811 beringel;Beringel;38.05609;-7.98426;205247;
Externato Raínha Santa Isabel;R. Magalhães de Lima,46  ;7100 - 552 estremoz;Estremoz;38.842575;-7.590717;704018;
Fundação Nª. Srª das Dores;R. Miguel Bombarda, nº 10  ;7580 - 156 alcácer do sal;Alcácer do Sal;38.370773;-8.50521;1501969;
"Infantário ""Dona Anita""";R. Comendador Assis Roda  ;7400 - 000 ponte de sor;Galveias;39.15888;-7.999037;1213147;
Infantário Carrilho Garcia (Stª Casa da Misericórdia de Almodôvar);Praça da República, nº 24  ;7700 - 041 almodôvar;Almodôvar;37.513077;-8.060305;202286;
Infantário Lápis de Cor;Travessa de SAnta Maria, 11  ;7645 - 312 vila nova de milfontes;Vila Nova de Milfontes;37.726597;-8.78293;211239;
Jardim Escola João de Deus;Avª da Liberdade  ;7400 - 217 ponte de sor;Ponte de Sôr;39.255753;-8.010599;1213203;
"Jardim Infantil ""Capuchinho Vermelho"" (Stª.Cª Misericórdia)";R. Judice Fialho nº 1  ;7520 - 218 sines;Sines;37.955303;-8.872439;1513870;
"Jardim Infantil ""Lar Jacinto Faleiro""";Avenida Soeiro Pereira Gomes, nº 1  ;7780 - 127 castro verde;Castro Verde;37.702557;-8.088033;206300;
"Jardim Infantil ""Nossa Senhora da Conceição""";Rua Afonso de Albuquerque, nº 9  ;7800 - 442 beja;Beja;38.010056;-7.860166;205540;
"Jardim Infantil ""Nossa Sra. da Piedade""";R. 24 de Julho, 5  ;7000 - 673 évora;Évora;38.56833;-7.908209;705826;
"Jardim Infantil ""O Pintainho"" (Cáritas Paroquial)";Azinhaga S. Sebastião   ;7520 - 001 sines;Sines;37.953888;-8.8626995;1513901;
"Jardim Infantil ""Os Nossos Fofinhos""";Bairro da Salsinha - Rua dos Olivais, nº 72  ;7100 - 120 estremoz;Estremoz;38.836803;-7.589895;704727;
"Jardim Infantil ""Seara Nova""";Rua de Jesus, n.º 14  ;7800 - 827 beringel;Beringel;38.05626;-7.986567;205554;
"Jardim Infantil Ass. Solid. Social""Os Amigos da Landeira""";R. Joaquim Agostinho, nº 4  ;2965 - 414 landeira;Landeira;38.595097;-8.648987;712634;
Jardim Infantil F. Joaquim H. Raposo;R. Joaquim H. Raposo s/n  ;7800 - 700 salvada;Salvada;37.935295;-7.7725964;205418;
Jardim Infantil Nª Sra. da Conceição;Largo das Portas de Moura s/n  ;7830 - 384 serpa;Serpa;37.944923;-7.595826;213630;
Jardim Infantil Nª Sra. da Piedade;R. Dr. João de Paiva, nº 6  ;7630 - 161 odemira;Odemira;37.595547;-8.642366;211926;
Jardim Infantil Nª Srª. do Perpétuo Socorro;Travessa do Ferrompéu, nº 3  ;7100 - 000 estremoz;Veiros;38.95409;-7.507838;704712;
Jardim Infantil O Avião;Bairro Residencial da Força Aérea  ;7800 - 399 beja;Beja;38.009895;-7.8690324;205722;
Jardim Infantil O Golfinho;Rua do Mercado, Lote 141 D  ;7500 - 220 vila nova de santo andré;Vila Nova de Santo André;38.05818;-8.790683;1509312;
Jardim Infantil O Ninho (Stª Cª Misericórdia);Travessa dos Jasmins, Bairro das Flores  ;7500 - 000 vila nova de santo andré;Vila Nova de Santo André;38.05332;-8.78278;1509106;
Jardim Infantil Quinta dos Sonhos;Rua da Barbarrala, n.º 1 - Parque Industrial e Tecnológico de Évora  ;7000 - 171 évora;Évora;38.550224;-7.9152846;705764;
Jardim Infantil S. Lourenço-C.R. Segur. Social;Rua Alexandre Herculano, nº 97  ;7300 - 121 portalegre;Portalegre;39.29917;-7.430965;1214040;
Jardim Infantil da Associação Escola Aberta;R. S. Gregório, nº 18  ;7800 - 297 beja;Beja;38.016438;-7.863019;205717;
Jardim Infantil da Fund. Dias de Carvalho;R. Combatentes da G. Guerra, 2  ;7220 - 414 portel;Portel;38.31048;-7.705329;709073;
Jardim Infantil da Fund. Viscondes de Messangil;Rua João Tiago Coelho, nº 36  ;7830 - 275 pias srp;Pias;38.01892;-7.475046;213629;
Jardim Infantil da Obra S. José Operário;Rua das Fontes, 3- A  ;7000 - 901 évora;Évora;38.57353;-7.908445;705171;
Jardim Infantil da Stª Casa da Misericórdia;Rua Capitães de Abril  ;7425 - 124 montargil;Montargil;39.077023;-8.170867;1213723;
Jardim Infantil da Stª Casa da Misericórdia;Avº Dr. António José de Almeida, 14 - Ap. 61  ;7200 - 372 reguengos de monsaraz;Reguengos de Monsaraz;38.425846;-7.535089;711895;
Jardim Infantil da Stª Casa da Misericórdia;Av. do Hospital  ;7470 - 214 sousel;Sousel;38.94985;-7.674332;1215780;
Jardim Infantil da Stª Casa da Misericórdia;Largo do Matadouro Velho  ;7040 - 027 arraiolos;Arraiolos;38.720375;-7.984443;702725;
Jardim Infantil da Stª Casa da Misericórdia;R. das Escolas (Quinta do Jardim)  ;7040 - 611 vimieiro;Vimieiro;38.833324;-7.837725;702126;
Jardim Infantil da Stª Casa da Misericórdia;Estrada Nacional, nº 245  ;7460 - 000 fronteira;Fronteira;39.052677;-7.648456;1208004;
Jardim Infantil da Stª Casa da Misericórdia;Largo Dr. Fialho de Almeida  ;7940 - 115 cuba;Cuba;38.165184;-7.887144;207730;
Jardim Infantil da Stª Casa da Misericórdia;Av. Garibalde de Andrade  ;7400 - 222 ponte de sor;Ponte de Sôr;39.250996;-8.013899;1213056;
Jardim Infantil da Stª Casa da Misericórdia;Lg. Vasco da Gama, nº 4  ;7960 - 226 vidigueira;Vidigueira;38.20786;-7.798205;214502;
Jardim Infantil da Stª Cª Misericórdia de Mora;Horta do Lameirão  ;7490 - 000 mora;Mora;38.946754;-8.164309;707445;
Jardim Infantil da Stª Cª Misericórdia de Vila Viçosa;Estrada da Biquinha  ;7160 - 202 vila viçosa;Vila Viçosa;38.776337;-7.422765;714994;
Jardim Infantil de Gavião;R. Dr. Dias Calazans  ;6040 - 117 gavião;Gavião;39.463387;-7.935023;1209229;
Jardim Infantil do C. de Bem-Estar Social;R. Magalhães de Lima,46  ;7100 - 552 estremoz;Estremoz;38.842575;-7.590717;704312;
Jardim Infantil do Centro Comunitário de S. Bartolomeu;Bairro de S. Bartolomeu - Apartado 82  ;7300 - 493 portalegre;Portalegre;39.2921;-7.437916;1214018;
Jardim Infantil do Centro Cultural do B. S. João e Olival Queimado;Bairro do Olival Queimado  ;7580 - 000 alcácer do sal;Alcácer do Sal;38.39259;-8.517854;1501785;
Jardim Infantil do Centro Paroq. S. Julião;Largo da Igreja, nº 1  ;7220 - 213 monte do trigo;Monte do Trigo;38.395943;-7.713828;709764;
Jardim Infantil do Centro Paroquial;Largo da Igreja  ;7050 - 611 ciborro;Ciborro;38.800037;-8.22832;706820;
Jardim Infantil do Centro Paroquial de Assistência;Rua César Videira  ;7320 - 207 castelo de vide;Qt. de Stº António;39.413406;-7.455117;1205879;
Jardim Infantil do Centro Social Paroquial do Torrão;Lg. S. Francisco nº 1  ;7595 - 102 torrão;Torrão;38.294918;-8.223814;1501160;
Jardim Infantil do Centro Social e Paroquial de Odivelas;Largo da Igreja  ;7900 - 383 odivelas fal;Odivelas;38.168564;-8.146441;208592;
Jardim Infantil do Centro Social e Paroquial do Salvador;Rua Tenente Sanches Miranda, nº 68  ;7800 - 072 beja;Beja;38.012466;-7.85467;205462;
Jardim Infantil do Centro de Bem Estar Social de Urra;R. da Igreja Nº15  ;7300 - 570 urra;S. Tiago;39.237453;-7.3891964;1214395;
Jardim Infantil do Centro de Bem-Estar Social;Estrada da Circunvalação  ;7340 - 031 arronches;Arronches;39.120663;-7.283211;1202267;
Jardim Infantil do Centro do Imaculado Coração de Maria;R. Teófilo Braga, 2  ;7090 - 286 viana do alentejo;Viana Do Alentejo;38.331867;-8.003303;713868;
Jardim Infantil do Legado do Caixeiro Alentejano, R.M.;Quinta dos Apóstolos - Louredo  ;7000 - 173 évora;Évora;38.609894;-7.921917;705666;
Jardim Infantil do Patronato de Stº António;Rua de São Sebastião s/n  ;7800 - 298 beja;Beja;38.02002;-7.8656797;205193;
Jardim de Infânca de Peroguarda, Ferreira do Alentejo;Peroguarda  ;7900 - 000 ferreira do alentejo;Peroguarda;38.092144;-8.044865;208791;
"Jardim de Infância ""OsTraquinas""";Av. do Lar  ;7300 - 651 fortios;Fortios;39.321583;-7.4958196;1214226;
Jardim de Infância Os Traquinas;Rua Tomás Alcaide, 2 - A  ;7100 - 502 estremoz;Estremoz;38.84475;-7.583606;704400;
Jardim de Infância da Afeiteira, Vendas Novas;Afeiteira  ;7080 - 301 vendas novas;Afeiteira;38.64979;-8.507979;712779;
Jardim de Infância da Santa Casa da Misericórdia;Av. António Sérgio  ;7370 - 090 campo maior;Campo Maior;39.0198;-7.064554;1204739;
"Jardim de Infância da Santa Casa da Misericórdia de Aljustrel - ""A Borboleta""";Av. 1º de Maio,  nº 4  ;7600 - 010 aljustrel;Aljustrel;37.877003;-8.163006;201135;
Jardim de Infância da Santa Casa da Misericórdia de Beja;Rua da Ancha, nº 33  ;7800 - 030 beja;Beja;38.014008;-7.861171;205785;
Jardim de Infância da Santa Casa da Misericórdia de Mértola;Avenida Aureliano Mira Fernandes  ;7750 - 320 mértola;Mértola;37.644684;-7.661033;209525;
Jardim de Infância de Abela, Santiago do Cacém;Abela  ;7540 - 011 abela;Abela;38.000507;-8.55999;1509191;
Jardim de Infância de Aguiar, Viana do Alentejo;Rua 10 de Outubro  ;7090 - 405 aguiar vnt;Aguiar;38.39203;-7.9663434;713852;
Jardim de Infância de Alandroal;R. Combatentes da Grande Guerra  ;7250 - 135 alandroal;Alandroal;38.698627;-7.4069953;701350;
Jardim de Infância de Alcáçova, Elvas;Lg. dos Quartéis  ;7350 - 000 elvas;Elvas;38.8817;-7.1645184;1207333;
Jardim de Infância de Aldeia dos Fernandes, Almodôvar;Rua da Fabrica - Largo do Parque  ;7700 - 327 aldeia dos fernandes;Aldeia dos Fernandes;37.57127;-8.1721735;202088;
Jardim de Infância de Alfundão, Ferreira do Alentejo;R. das Fontaínhas  ;7900 - 038 alfundão;Alfundão;38.11734;-8.064074;208920;
Jardim de Infância de Almograve, Odemira;Largo do Comércio  ;7630 - 017 longueira-almograve;Almograve;37.653904;-8.79433;211622;
Jardim de Infância de Alpalhão, Nisa;Lg. do Monte Filipe  ;6050 - 026 alpalhão;Alpalhão;39.414505;-7.62078;1212488;
Jardim de Infância de Amoreiras-Gare, Odemira;R. Engenheiro Amaro da Costa  ;7630 - 514 s martinho das amoreiras;Amoreiras-Gare;37.68932;-8.411687;211098;
Jardim de Infância de Arronches;Lg. França Borges - Bairro de Santo António  ;7340 - 008 arronches;Arronches;39.122147;-7.280187;1202394;
Jardim de Infância de Assumar, Monforte;Rua de Alegrete  ;7450 - 000 monforte;Assumar;39.144558;-7.3923025;1211388;
Jardim de Infância de Avis;Lg. Gen. Humberto Delgado  ;7480 - 120 avis;Avis;39.052048;-7.8914514;1203152;
Jardim de Infância de Azaruja, Évora;Rua Conde da Azarujinha  ;7000 - 101 azaruja;Azaruja;38.702522;-7.780438;705837;
Jardim de Infância de Barrancos;Rua de Angola, s/n  ;7230 - 003 barrancos;Barrancos;38.13213;-6.978233;204273;
Jardim de Infância de Barulho, Arronches;R. das Escolas  ;7340 - 000 arronches;Mosteiros;39.190975;-7.2848325;1202483;
Jardim de Infância de Benavila, Avis;R. do Rossio  ;7480 - 213 benavila;Benavila;39.10691;-7.8698874;1203603;
Jardim de Infância de Bencatel, Vila Viçosa;Bairro 25 de Abril  ;7160 - 060 bencatel;Bencatel;38.74572;-7.456431;714886;
Jardim de Infância de Boa-Fé, Évora;Nª. Srª. da Boa Fé  ;7000 - 013 nossa senhora da boa fé;Nª. Srª da Boa Fé;38.554623;-8.092913;705724;
Jardim de Infância de Brotas, Mora;Rua Francisco Pereira Salgado  ;7490 - 024 brotas;Brotas;38.874123;-8.151362;707642;
Jardim de Infância de Campinho, Reguengos de Monsaraz;R. da Igreja  ;7200 - 511 campinho;Campinho;38.36768;-7.4694343;711563;
Jardim de Infância de Caridade, Reguengos de Monsaraz;Rua da Chaminé  ;7200 - 223 reguengos de monsaraz;Caridade;38.448524;-7.5657983;711791;
Jardim de Infância de Carreiras, Portalegre;Carreiras  Portalegre  ;7300 - 355 carreiras;Carreiras;39.370144;-7.4344587;1214921;
Jardim de Infância de Castelão, Odemira;Castelão  ;7630 - 436 são luís;Castelão;37.673878;-8.6566;211033;
Jardim de Infância de Castro Verde;R. Profª. Ema Júlio Valente  ;7780 - 000 castro verde;Castro Verde;37.701595;-8.088783;206499;
Jardim de Infância de Casével, Castro Verde;Altinho  ;7780 - 020 casével cvr;Casével;37.757004;-8.183801;206500;
Jardim de Infância de Cavaleiro, Odemira;R. da Escola  ;7630 - 055 odemira;Cavaleiro;37.59871;-8.804115;211769;
Jardim de Infância de Colos, Odemira;Rua das Escadinhas do Duque  ;7630 - 000 odemira;Colos;37.735077;-8.458213;211684;
Jardim de Infância de Cunheira, Alter do Chão;Largo Fontes Pereira de Melo  ;7440 - 251 cunheira;Cunheira;39.321556;-7.804558;1201104;
Jardim de Infância de Degolados, Campo Maior;Av. Dr. Artur António Louro  ;7370 - 191 n senhora graça degolados;Degolados;39.062317;-7.1211987;1204430;
Jardim de Infância de Ermidas-Sado, Santiago do Cacém;Rua 25 de Abril  ;7565 - 210 ermidas-sado;Ermidas-Sado;38.00778;-8.411538;1509677;
Jardim de Infância de Ervideira, Ponte de Sôr;R. Luis de Camões  ;7400 - 119 ponte de sor;Ervideira;39.220467;-8.009741;1213880;
Jardim de Infância de Esperança, Arronches;Bairro Novo  ;7340 - 000 arronches;Esperança;39.159035;-7.1931534;1202351;
Jardim de Infância de Faro do Alentejo, Cuba;R. dos Palheiros  ;7940 - 311 faro do alentejo;Faro do Alentejo;38.14735;-7.9408436;207408;
Jardim de Infância de Figueira de Cavaleiros, Ferreira do Alentejo;Rua 5 de Março  ;7900 - 000 ferreira do alentejo;Figueira dos Cavaleiros;38.09358;-8.208533;208749;
Jardim de Infância de Fortes, Ferreira do Alentejo;Fortes  ;7900 - 131 ferreira do alentejo;Fortes;37.99809;-8.261306;208900;
Jardim de Infância de Garvão, Ourique;Rua de Ourique  ;7670 - 000 ourique;Garvão;37.70822;-8.340175;212761;
Jardim de Infância de Graça do Divor, Évora;Rua de Évora  ;7000 - 019 n senhora graça do divor;Graça do Divor;38.655407;-7.9870863;705125;
Jardim de Infância de Gáfete, Crato;Lg. Gouveia Botelho  ;7430 - 259 gáfete;Gáfete;39.412056;-7.6856723;1206737;
Jardim de Infância de Igrejinha, Arraiolos;Rua das Escolas  ;7040 - 220 igrejinha;Igrejinha;38.70937;-7.8956027;702410;
Jardim de Infância de Malvar, Elvas;Rua da Tapada  ;7350 - 469 elvas;Malvar;38.866238;-7.208791;1207656;
Jardim de Infância de Monforte;Rua José Mário Romão Nobre Cartaxo  ;7450 - 134 monforte;Monforte;39.05398;-7.436724;1211118;
Jardim de Infância de Monte Branco, Vendas Novas;Bombel  ;7080 - 303 vendas novas;Vendas Novas;38.68629;-8.513168;712739;
Jardim de Infância de Montejuntos, Alandroal;R. Nª Senhora da Conceição  ;7250 - 282 capelins;Montejuntos;38.545826;-7.346303;701154;
Jardim de Infância de Mourão;Largo Dr. Libano Esquivão  ;7240 - 000 mourão;Mourão;38.38014;-7.342237;708954;
Jardim de Infância de Mértola;Rua Maria Luisa Sales  ;7750 - 313 mértola;Mértola;37.64078;-7.661639;209976;
Jardim de Infância de Nora, Borba;Bairro do Pião  ;7150 - 344 rio de moinhos brb;Nora;38.80599;-7.495607;703590;
Jardim de Infância de Nossa Senhora de Machede, Évora;Pátio da Casa do Povo  ;7000 - 050 nossa sra. de machede;Nossa Sra. de Machede;38.577053;-7.7761054;705610;
Jardim de Infância de Odemira;R. Sousa Prado, nº2  ;7630 - 176 odemira;Odemira;37.59739;-8.642469;211038;
Jardim de Infância de Orada, Borba;Rua António Serafim dos Santos  ;7150 - 308 orada;Orada;38.87493;-7.466656;703212;
Jardim de Infância de Panóias, Ourique;Panóias  ;7670 - 405 panoias orq;Panóias;37.757946;-8.300623;212958;
Jardim de Infância de Pardais, Vila Viçosa;Lg. das Escolas  ;7160 - 363 pardais;Pardais;38.72372;-7.400441;714874;
Jardim de Infância de Pavia, Mora;Lg. Manuel Ribeiro de Pavia  ;7490 - 434 pavia;Pavia;38.891144;-8.017813;707234;
Jardim de Infância de Pereiras-Gare, Odemira;Pereiras-Gare  ;7665 - 881 pereiras-gare;Pereiras-Gare;37.43424;-8.446819;211127;
Jardim de Infância de Póvoa de São Miguel, Moura;R. do Lagar  ;7885 - 259 póvoa de são miguel;Póvoa de S. Miguel;38.22611;-7.332343;210835;
Jardim de Infância de Póvoa e Meadas, Castelo de Vide;Estrada de Montalvão  ;7320 - 111 castelo de vide;Póvoa e Meadas;39.51517;-7.5201554;1205949;
Jardim de Infância de Relíquias, Odemira;Rua do Poço Velho  ;7630 - 392 relíquias;Relíquias;37.701614;-8.485308;211310;
Jardim de Infância de Revoltilhos, Elvas;Bairro Revoltilhos  ;7350 - 213 elvas;Elvas;38.868618;-7.1708865;1207122;
Jardim de Infância de Rio de Moinhos, Aljustrel;Rua da Escola  ;7600 - 503 rio de moinhos ajt;Rio de Moinhos;37.89682;-8.208558;201489;
Jardim de Infância de Sabugueiro, Arraiolos;Largo da Igreja  ;7040 - 707 sabugueiro arl;Sabugueiro;38.763126;-8.120977;702289;
Jardim de Infância de Safara, Moura;Rua Santa Maria  ;7875 - 067 safara;Safara;38.106716;-7.21706;210418;
Jardim de Infância de Santa Maria, Estremoz;Rua António José de Almeida  ;7100 - 456 estremoz;Estremoz;38.85028;-7.588501;704091;
Jardim de Infância de Santo Aleixo Restauração, Moura;Rua do Calvário  ;7875 - 172 sto aleixo da restauração;Santo Aleixo Restauração;38.06537;-7.152388;210611;
Jardim de Infância de Santo Amaro, Sousel;R. D. Maria Luísa de Sousa  ;7470 - 155 santo amaro ssl;Santo Amaro;38.968765;-7.5823;1215064;
Jardim de Infância de Sete e Meio, Moura;R. Eira dos Caeiros  ;7860 - 131 moura;Moura;38.14721;-7.4528213;210102;
Jardim de Infância de Sete, Castro Verde;Rua da Escola  ;7780 - 000 castro verde;Sete;37.61827;-7.956888;206030;
Jardim de Infância de Sobral da Adiça, Moura;R. 28 de Setembro  ;7875 - 388 sobral da adiça;Sobral da Adiça;38.020554;-7.2596655;210778;
Jardim de Infância de St.º António das Areias, Marvão;Canto Roubado  ;7330 - 208 santo antónio das areias;Santo António das Areias;39.41246;-7.353255;1210589;
Jardim de Infância de São Bartolomeu, Portel;Estrada de Viana do Alentejo  ;7220 - 524 são bartolomeu do outeiro;S. Bartolomeu do Outeiro;38.357136;-7.907646;709299;
Jardim de Infância de São Marcos do Campo, Reguengos de Monsaraz;R. de Moura, nº 65  ;7200 - 072 campo rmz;S. Marcos do Campo;38.338394;-7.510444;711710;
Jardim de Infância de São Romão, Vila Viçosa;Bairro de Sto António - Rua D  ;7160 - 120 ciladas;São Romão;38.776196;-7.316739;714762;
Jardim de Infância de São Sebastião da Giesteira, Évora;R. da Escola  ;7000 - 202 s sebastião da giesteira;S. Sebastião da Giesteira;38.584507;-8.101825;705864;
Jardim de Infância de São Teotónio, Odemira;Bairro Santa Isabel  ;7630 - 000 odemira;S. Teotónio;37.513203;-8.706866;211995;
Jardim de Infância de Terrugem, Elvas;Ramal Laranjeiras  ;7350 - 491 terrugem elv;Terrugem;38.84516;-7.3476195;1207964;
Jardim de Infância de Tolosa, Nisa;R. das Escolas  ;6050 - 505 tolosa;Tolosa;39.420662;-7.717301;1212984;
Jardim de Infância de Tramaga, Ponte de Sôr;R. Principal  ;7400 - 604 tramaga;Tramaga;39.22575;-8.032144;1213226;
Jardim de Infância de Vaiamonte, Monforte;Largo Mariano M. Costa Pinto  ;7450 - 000 monforte;Vaiamonte;39.09221;-7.5112453;1211262;
Jardim de Infância de Vale de Cavalos, Portalegre;R. Pedro Maria Gaio  ;7300 - 335 alegrete;Vale de Cavalos;39.225758;-7.3054256;1214523;
Jardim de Infância de Vale de Gaviões, Gavião;R. Principal, n.º 27  ;6040 - 079 margem;Vale de Gaviões;39.37965;-7.9021015;1209230;
Jardim de Infância de Vale de Santiago, Odemira;R. da Igreja  ;7630 - 698 vale de santiago;Vale de Santiago;37.752407;-8.412203;211408;
Jardim de Infância de Valverde, Évora;Rua General Humberto Delgado, 42  ;7000 - 093 nossa senhora da tourega;Valverde;38.53387;-8.02311;705255;
Jardim de Infância de Vera Cruz, Portel;Estrada de Portel  ;7220 - 000 portel;Vera Cruz;38.229275;-7.682492;709782;
Jardim de Infância de Vila Alva, Cuba;R. Dr. Fernandes Dias de Sousa  ;7940 - 385 vila alva;Vila Alva;38.24784;-7.9008684;207024;
Jardim de Infância de Vila Nova de Baronia, Alvito;R. D. Nuno Álvares Pereira, nº 13  ;7920 - 373 vila nova da baronia;Vila Nova de Baronia;38.291527;-8.03798;203994;
Jardim de Infância de Vila Nova de Milfontes, Odemira;R.Artur Horta  ;7645 - 224 vila nova de milfontes;Vila Nova de Mil Fontes;37.72896;-8.779589;211009;
Jardim de Infância de Vila Ruiva, Cuba;R. de Beja  ;7940 - 461 vila ruiva cub;Vila Ruiva;38.245323;-7.9356093;207861;
Jardim de Infância de Vila Verde de Ficalho, Serpa;Estr. Internacional  ;7830 - 000 serpa;Vila Verde de Ficalho;37.945534;-7.2999725;213693;
Jardim de Infância de Vila Viçosa;Av. 25 de Abril - Vila Viçosa  ;7160 - 221 vila viçosa;Vila Viçosa;38.773888;-7.41435;714321;
Jardim de Infância de Água de Lupe, Évora;Largo Abel Augusto nº 3  ;7000 - 222 n senhora de guadalupe;Nª. Srª. de Guadalupe;38.567978;-8.026237;705263;
Jardim de Infância do Bairro Garcia de Resende, Évora;Bairro Garcia de Resende  ;7005 - 161 évora;Évora;38.56667;-7.895851;705977;
Jardim de Infância do Bairro da Cruz da Picada, Évora;Bairro Cruz da Picada  ;7000 - 772 évora;Évora;38.56573;-7.927781;705639;
Jardim de Infância do Bairro de Santo António, Évora;Bairro de Santo António  ;7000 - 000 évora;Évora;38.57476;-7.8758545;705820;
Jardim de Infância do Centro Social Diocesano de Santo António;Av. Pio XII  ;7300 - 073 portalegre;São Lourenço;39.301525;-7.427981;1214364;
Jardim de Infância do Penedo de Ouro, Évora;Estrada da Igrejinha - Bairro do Poço Novo  ;7000 - 774 bacelo;Bacelo;38.578716;-7.9117565;705646;
Jardim de Infância n.º 1 de Grândola;Rua Nossa Senhora da Penha  ;7570 - 000 grândola;Grândola;38.173065;-8.56751;1505391;
Jardim de Infância n.º 1 de Montemor-o-Novo;Rua Comanadante Fragoso  ;7050 - 163 montemor-o-novo;Montemor-o-Novo;38.64909;-8.2172985;706637;
Jardim de Infância n.º 2 de Grândola;Praça António Abílio Camacho - Casas da Cortiça  ;7570 - 214 grândola;Grândola;38.17956;-8.557167;1505048;
Jardim de Infância n.º 2 de Montemor-o-Novo;R. de Avis, nº 79  ;7050 - 089 montemor-o-novo;Montemor-o-Novo;38.649048;-8.214287;706459;
Jardim de Infância o Sabichão;Rua Padre António Macedo, 60  ;7540 - 200 santiago do cacém;Santiago do Cacém;38.014904;-8.697009;1509701;
Lar dos Pequeninos;Rua D.Nuno Alvares Pereira  ;7050 - 266 montemor-o-novo;Montemor-o-Novo;38.65112;-8.211155;706174;
O Bercinho - Associação Obras de Assistência de S. Vicente de Paulo;Largo General Humberto Delgado 13  ;7050 - 123 montemor-o-novo;Nossa Senhora da Vila;38.644768;-8.213389;706513;
O Casulo - Associação P/ Desenvolvimento Sócio-Cultural da Zona Oeste;Bairro da Cruz Picada - Zona 1 - Lote 46/49  ;7000 - 772 évora;Évora;38.56687;-7.9267535;705309;
Obra de Stª Zita;Largo do Espirito Santo, 15  ;7300 - 120 portalegre;Portalegre;39.296062;-7.42932;1214190;
Obra de Stª Zita;Av. da Piedade, 11  ;7350 - 094 elvas;Elvas;38.87621;-7.171441;1207028;
Semi-Internato de Nª Sra. da Encarnação;R. Francisco da Silva, nº 9  ;7350 - 272 elvas;Elvas;38.88206;-7.161674;1207592;
Semi-Internato de Nª Sra. da Encarnação-Anexo;R. de Timor-Bº da Boa Fé  ;7350 - 272 elvas;Elvas;38.887184;-7.153585;1207855;
Stª Casa da Misericórdia de Santiago do Cacém;Rua do Hospital  ;7540 - 166 santiago do cacém;Santiago do Cacém;38.020435;-8.700319;1509871;
Oficina Divertida;Estrada Srª da Saúde, nº 8 Dtº  ;8000 - 000 faro;Faro;37.021816;-7.9383516;805427;
A Carochinha;R. Eng. Barata Correia, 35  ;8100 - 569 loulé;Loulé;37.136864;-8.018749;808151;
A.A.P.A.C.D.M.;R: do Compromisso, nº 50  ;8000 - 252 faro;Faro;37.017918;-7.9350405;805671;
Academia de Música de Lagos;Rua Dr. José Cabrita - Apartado 411  ;8600 - 000 lagos;Rossio de S. João - Lagos;37.106823;-8.675556;807375;
Academia de Música de Lagos - Secção de Lagoa;Rua Alexandre Herculano, n.º 24  ;8400 - 000 lagoa;Lagoa;37.135517;-8.453286;806237;
Academia de Música de Tavira;Rua João Vaz Corte Real, n.º 20  ;8800 - 351 tavira;Tavira;37.127796;-7.650424;814696;
"Assoc. Jardim de Infância Segundo a Pedagogia de R.Steiner -"" Infância Viva""";Monte Judeu- Barão de São João  ;8600 - 020 barão de são joão;Monte Judeu - Lagos;37.126286;-8.724405;807501;
Associação Portuguesa de Paralisia Cerebral;R. de Moçambique  ;8000 - 280 faro;Faro;37.026814;-7.9364204;805968;
Associação Refugio Aboim Ascenção;Rua Manuel Ascenção nº 9  ;8000 - 389 faro;Faro;37.021667;-7.936678;805184;
Associação Social da Freguesia de Odeleite;Odeleite  ;8950 - 121 castro marim;Castro Marim;37.335087;-7.491047;804207;
Caritas Diocesana do Algarve O Despertar;R. Dr. José de Matos  ;8000 - 234 faro;Faro;37.01568;-7.918208;805433;
Casa da Primeira Infância de Loulé;R. Ascenção Guimarães  ;8100 - 542 loulé;Loulé;37.140934;-8.018201;808008;
"Centro Infantil ""O Pinóquio"" da Stª Casa da Misericórdia de Tavira";R. Poeta Isidoro Pires  ;8800 - 422 tavira;Tavira;37.12198;-7.64849;814106;
"Centro Infantil ""Os Vivaços"" - Fundação Algarvia de Desenvolvimento Social";Pct. Dr. Coutinho Pais, Lt. 28, Urb. Chasfa  ;8700 - 000 olhão;Quelfes;37.037178;-7.8382998;810414;
Centro Infantil António Calçada (Stª Casa da Misericórdia);R. João Rosa Beatriz, 75  ;8150 - 154 são brás de alportel;S. Brás de Alportel;37.15184;-7.893186;812379;
Centro Infantil da Luz do CASLAS;Rua do Ramalhete - Praia da Luz  ;8600 - 000 lagos;Lagos;37.08882;-8.731601;807270;
Centro Infantil de Altura - Associação Cegonha Branca;Aldeamento Bela Praia Alagoa  ;8950 - 414 altura;Altura;37.177998;-7.504319;804032;
Centro Infantil de Bensafrim do CASLAS;Bensafrim  ;8600 - 069 bensafrim;Lagos;37.157753;-8.73424;807518;
Centro Infantil de Santo Amaro do CASLAS;Santo Amaro  ;8600 - 644 lagos;Lagos;37.10387;-8.680612;807073;
Centro Infantil de São João do CASLAS;Rossio de S. João  ;8600 - 324 lagos;Lagos;37.108093;-8.676565;807130;
Centro Infantil do Chinicato do CASLAS;Rua de Alfarrobeira - Chinicato  ;8600 - 306 lagos;Lagos;37.131596;-8.667899;807333;
Centro Paroquial de Estombar;Largo da Igreja, 14  ;8400 - 049 estombar;Estombar;37 146;-8.48804;806844;
Centro de Bem-Estar Infantil Nª Sra. de Fátima;R. Dr. José de Matos, 4  ;8000 - 504 faro;Faro;37.01566;-7.9262547;805241;
"Colégio ""A Flor""";Av. Miguel Bombarda  ;8500 - 508 portimão;Portimão;37.132782;-8.544568;811140;
"Colégio ""Algarve""";R. Filipe Alistão, nº 13  ;8000 - 343 faro;Faro;37.017376;-7.9344945;805155;
Colégio Bernardette de Jesus Romeira;Rua Dâmaso da Encarnação, n.º 29  ;8700 - 249 olhão;Olhão;37.032944;-7.8466578;810790;
Colégio Internacional de Vilamoura;Sítio das Quintinhas - Apartado 856  ;8125 - 000 quarteira;Vilamoura;37.115932;-8.144725;808038;
Colégio João Paulo II;Rua da Pedra  ;8500 - 001 alvor;Urb. Alto Alfarrobal;37.143494;-8.549546;811145;
Colégio SantaTeresinha;Lg. 1º de Maio, nº 29  ;8500 - 543 portimão;Portimão;37.136707;-8.53803;811651;
Colégio da Penina;Urbanização da Encosta da Penina  ;8500 - 329 portimão;Penina - Alvor;37.160282;-8.566385;811517;
Colégio de N.ª Sr.ª do Alto;R. de Berlim  ;8000 - 278 faro;Faro;37.019547;-7.917414;805100;
Colégio do Parchal - Educação e Jardins, Ldª.;R: dos Combatente de Angola, 22  ;8400 - 000 lagoa;Parchal;37.139393;-8.515959;806482;
Colégio do Rio, Lda.;Rua da Pedra  ;8500 - 313 portimão;Urbanização Vale de Lagar Residence;37.147717;-8.561211;811295;
Conservatório Regional de Vila Real de Santo António;Av. da República, 11 - Edifício PARODI  ;8900 - 201 vila real santo antónio;Vial Real de Santo António;37.190502;-7.412966;816704;
Conservatório Regional do Algarve;Avenida Dr.Júlio Filipe Almeida Carrapato, nº 93  ;8000 - 081 faro;Faro;37.01764;-7.9226394;805296;
Conservatório de Albufeira;Praça da República nº 4 e 5  ;8200 - 081 albufeira;Albufeira;37.087166;-8.25234;801686;
Conservatório de Música de Olhão;Rua Vasco da Gama, 60  ;8700 - 522 olhão;Olhão;37.026405;-7.840301;810819;
Conservatório de Música de Portimão Joly Braga Santos;Rua Dr. Ernesto Cabrita, nº 11  ;8500 - 655 portimão;Portimão;37.138416;-8.536338;811142;
Coop. Reeducação Apoio Criança Excepcional;Bairro 1º de Junho - Coca Maravilhas  ;8500 - 320 portimão;Portimão;37.148697;-8.54526;811087;
"Creche-Jardim Infantil de Vilamar ""Baby Moura""";R. das Estrelas  ;8125 - 000 quarteira;Vilamoura;37.079212;-8.114186;808429;
DSA - Escola Alemã do Algarve;Sítio do Lobito  ;8300 - 000 silves;Silves;37.14879;-8.431622;813351;
E.E.E. da Fundação Irene Rolo;Rua Freixinho de Vides, nº 41 - Horta do Carmo  ;8800 - 365 tavira;Tavira;37.12935;-7.644567;814682;
EPEI Giões, Alcoutim;EBI de Alcoutim  ;8970 - 052 alcoutim;Giões;null;null;50802003;
EPEI Loulé;R. Artur Marcos Guerreiro  ;8100 - 202 salir;Salir;null;null;50808001;
EPEI Pereiro, Alcoutim;EBI de Alcoutim  ;8970 - 052 alcoutim;Pereiro;null;null;50802002;
Ecoeduca Creche e Jardim de Infância, Ldª;Sítio do Bernardinheiro  ;8800 - 000 tavira;Tavira;37.10858;-7.687508;814224;
Escola Básica António Aleixo, Vila Real de Santo António;Bairro do Lazareto  ;8900 - 000 vila real santo antónio;Vila Real de Stº António;37.188038;-7.414368;816672;
Escola Básica Cavalinha, Olhão;R. João da Rosa  ;8700 - 480 olhão;Olhão;37.03364;-7.8356123;810157;
Escola Básica Coca Maravilhas, Portimão;Bairro Coca Maravilhas  ;8500 - 481 portimão;Portimão;37.15001;-8.5450945;811239;
Escola Básica D. Afonso III, Faro;Rua Luis de Camões  ;8004 - 014 faro;Faro;37.02303;-7.9398437;805009;
Escola Básica D. Dinis, Quarteira, Loulé;Quinta do Romão  ;8125 - 301 quarteira;Quarteira;37.076447;-8.108953;808627;
Escola Básica D. Francisca de Aragão, Quarteira, Loulé;R. da Escola  ;8125 - 213 quarteira;Quarteira;37.076065;-8.10365;808126;
Escola Básica D. José I, Vila Real de Santo António;R. Stº António de Arenilha  ;8900 - 275 vila real santo antónio;Vila Real de Stº António;37.19142;-7.419281;816159;
Escola Básica D. João II, Alvor, Portimão;Rossio Grande - Apartado 6  ;8500 - 000 portimão;Alvor;37.12798;-8.590508;811902;
Escola Básica D. Manuel I, Tavira;R. Dr. Fausto Cansado-Apart. 93  ;8800 - 413 tavira;Tavira;37.11916;-7.651918;814995;
Escola Básica D. Martim Fernandes, Albufeira;Lg. Luís de Camões  ;8200 - 062 albufeira;Albufeira;37.086727;-8.259465;801667;
Escola Básica D. Martinho de Castelo Branco, Portimão;Sítio do Pontal  ;8500 - 406 portimão;Portimão;37.1263;-8.541867;811674;
Escola Básica D. Paio Peres Correia, Tavira;Rua Jorge Corvo  ;8800 - 352 tavira;Tavira;37.131454;-7.6429877;814040;
Escola Básica Dr. Alberto Iria, Olhão;Rotunda do Estabelecimento Prisional  ;8700 - 312 olhão;Olhão;37.02883;-7.846816;810452;
Escola Básica Dr. António João Eusébio, Moncarapacho, Olhão;Av. D. Maria Rosa Dias  ;8700 - 082 moncarapacho;Moncarapacho;37.082054;-7.785287;810409;
Escola Básica Dr. António da Costa Contreiras, Armação de Pêra, Silves;Sitio daTorre - Apartado 260  ;8365 - 000 armação de pêra;Armação de Pêra;37.108856;-8.357308;813354;
Escola Básica Dr. António de Sousa Agostinho, Almancil, Loulé;Almancil  ;8100 - 000 loulé;Almancil;37.083935;-8.035183;808306;
Escola Básica Dr. Francisco Cabrita, Albufeira;Rua da Correeira - Montechoro  ;8200 - 112 albufeira;Albufeira;37.099037;-8.236362;801790;
Escola Básica Dr. Garcia Domingues, Silves;Praceta Gil Eanes - Apartado 38  ;8300 - 118 silves;Silves;37.18827;-8.446314;813825;
Escola Básica Dr. Joaquim Rocha Peixoto Magalhães, Faro;Horta do Ferregial  ;8000 - 544 faro;Faro;37.013412;-7.9287105;805823;
Escola Básica Dr. José de Jesus Neves Júnior, Faro;R. Dr. Emílio José Campos Coroa  ;8005 - 218 faro;Faro;37.028954;-7.9370704;805660;
Escola Básica Dr. João Lúcio, Fuseta, Olhão;Bias do Sul  ;8700 - 067 moncarapacho;Moncarapacho;37.056705;-7.762473;810394;
Escola Básica Eng. Duarte Pacheco, Loulé;Rua José António Madeira - Apartado 193  ;8100 - 000 loulé;Loulé;37.142067;-8.026933;808032;
Escola Básica Eng. Nuno Mergulhão, Portimão;Alto do Alfarrobal  ;8500 - 791 portimão;Portimão;37.142696;-8.548904;811550;
Escola Básica Horta do Carmo, Tavira;Rua Jorge Corvo  ;8800 - 352 tavira;Tavira;37.13062;-7.64253;51997;
Escola Básica Infante D. Fernando, Vila Nova de Cacela, Vila Real de Santo António;Largo Manuel Cabanas  ;8900 - 067 vila nova de cacela;Vila Nova de Cacela;37.174435;-7.535534;816345;
Escola Básica Jacinto Correia, Lagoa;Urb Lagoa sol - Rua Professor José Francisco Cabrita  ;8401 - 853 lagoa;Lagoa;37.139217;-8.457087;806284;
Escola Básica José Carlos da Maia, Olhão;Rua João Augusto Saias  ;8700 - 254 olhão;Olhão;37.038033;-7.838151;810637;
Escola Básica João da Rosa, Olhão;Horta do Espanha - Sitio de Marim - Quelfes  ;8700 - 221 olhão;Olhão;37.034035;-7.8319354;810114;
Escola Básica João de Deus, São Bartolomeu de Messines, Silves;Bº da Barrada  ;8375 - 140 s bartolomeu de messines;S. Bartolomeu de Messines;37.256763;-8.289691;813897;
Escola Básica Júdice Fialho, Portimão;Avenida Fernando Pessoa - Pedra Mourinha  ;8500 - 305 portimão;Portimão;37.142628;-8.556755;811445;
Escola Básica Major David Neto, Portimão;Estrada de Alvor  ;8500 - 521 portimão;Portimão;37.137234;-8.543188;811234;
Escola Básica Manuel Cabanas, Vila Nova de Cacela, Vila Real de Santo António;Largo Manuel Cabanas  ;8900 - 067 vila nova de cacela;Vila Nova de Cacela;37.175354;-7.536021;816426;
Escola Básica Manuel do Nascimento, Monchique;Estrada de Sabóia  ;8550 - 426 monchique;Monchique;37.319267;-8.553607;809941;
Escola Básica Mãe Soberana, Loulé;R. José António Madeira  ;8100 - 670 loulé;Loulé;37.141647;-8.025102;808329;
Escola Básica Padre João Coelho Cabanita, Loulé;Campina de Cima  ;8100 - 851 loulé;Loulé;37.133633;-8.005335;808923;
Escola Básica Poeta Bernardo de Passos, São Brás de Alportel;S. Brás de Alportel  ;8150 - 111 são brás de alportel;S. Brás de Alportel;37.157314;-7.8864183;812010;
Escola Básica Poeta Emiliano da Costa, Estoi, Faro;Rua Vasco da Gama  ;8005 - 479 faro;Estói;37.09184;-7.8949614;805415;
Escola Básica Prof. Caldeira Alexandre, Vila Real de Santo António;Av. Duarte Pacheco, 3 - Apartado 160  ;8900 - 211 vila real santo antónio;Vila Real de Stº António;37.191597;-7.41818;816069;
Escola Básica Prof. Dr. Aníbal Cavaco Silva, Boliqueime, Loulé;Fonte de Boliqueime  ;8100 - 069 boliqueime;Boliqueime;37.130146;-8.149651;808125;
Escola Básica Prof. Joaquim Moreira, Martinlongo, Alcoutim;Rua Portas do Laborato  ;8970 - 280 martim longo;Martim Longo;37.44203;-7.7703853;802696;
Escola Básica Prof. José Buísel, Portimão;Sitio da Raminha  ;8500 - 826 portimão;Portimão;37.14301;-8.544079;811868;
Escola Básica Prof.ª Diamantina Negrão, Albufeira;Sítio de Brejos  ;8200 - 317 albufeira;Montechoro;37.103256;-8.224485;801532;
Escola Básica Professor João Cónim, Estômbar, Lagoa;R. 20 de Junho - Sitio da Carrasca - Estômbar  ;8400 - 063 estombar;Estômbar;37.145813;-8.481409;806719;
Escola Básica Professor Manuel Martins Alves, Loulé;Rua Padre João Coelho Cabanita  Campina de Cima;8100 - 000 loulé;Loulé;37.1334;-8.0075;808001;
Escola Básica Professor Paula Nogueira, Olhão;R. da Comunidade Lusíada  ;8700 - 248 olhão;Olhão;37.03837;-7.849832;810464;
Escola Básica Professor Sebastião José Pires Teixeira, Salir, Loulé;R. Artur Marcos Guerreiro  ;8100 - 202 salir;Salir;37.23804;-8.044371;808651;
Escola Básica Rio Arade, Parchal, Lagoa;R. da Escola  ;8400 - 615 parchal;Parchal;37.13731;-8.514617;806296;
Escola Básica Santo António, Faro;Rua Reitor Teixeira Guedes  ;8000 - 425 faro;Faro;37.021454;-7.921804;805585;
Escola Básica Santo António, Vila Real de Santo António;R. do Lusitano - Bairro do Matadouro  ;8900 - 000 vila real santo antónio;Hortas;37.194252;-7.4273467;816593;
Escola Básica Santo Estêvão, Tavira;Lg. Dr. Carlos Picoito  ;8800 - 000 tavira;Santo Estevão;37.12682;-7.7150545;814029;
Escola Básica São Pedro do Mar, Quarteira, Loulé;Rua da Abelheira  ;8125 - 173 quarteira;Quarteira;37.069866;-8.095769;808497;
Escola Básica São Vicente, Vila do Bispo;Rua Santa Maria do Cabo  ;8650 - 000 vila do bispo;Vila do Bispo;37.082188;-8.913792;815934;
Escola Básica Tecnopolis de Lagos;Rua Dom Gaspar de Leão - Apartado 145  ;8601 - 902 lagos;Lagos;37.105816;-8.689511;807000;
Escola Básica Vale de Pedras, Albufeira;Caminho dos Brejos  ;8200 - 498 paderne abf;Vale de Pedras;37.10548;-8.243599;801044;
Escola Básica da Guia, Albufeira;Rua José Cabrita  Cerco das Hortas;8200 - 435 guia abf;GUIA;37.12541;-8.304605;14095;
Escola Básica da Luz, Tavira;Luz de Tavira  ;8800 - 112 luz tvr;Luz de Tavira;37.09497;-7.7040544;814909;
Escola Básica das Naus, Lagos;Apartado 850 - Marina - Lagos  ;8600 - 000 lagos;Lagos - São Sebastião;37.110195;-8.670907;807008;
Escola Básica de Abelheira, Quarteira, Loulé;Quarteira - Sítio da Abelheira  ;8100 - 000 loulé;Quarteira;37.07174;-8.090343;808114;
Escola Básica de Alcantarilha, Silves;Qta  do Rogel  ;8365 - 000 armação de pêra;Alcantarilha;37.132362;-8.346001;813508;
Escola Básica de Alcoutim;Av de Espanha  ;8970 - 052 alcoutim;Alcoutim;37.473457;-7.4747424;802488;
Escola Básica de Algoz, Silves;Rua das Quintas  ;8365 - 000 armação de pêra;Algoz;37.16587;-8.300678;813121;
Escola Básica de Aljezur;Barrada  ;8670 - 113 aljezur;Aljezur;37.319756;-8.796212;803258;
Escola Básica de Almancil, Loulé;R. João de Deus, 31-33  ;8135 - 159 almancil;Almancil;37.088863;-8.030745;808144;
Escola Básica de Alportel, São Brás de Alportel;Alportel  ;8150 - 014 são brás de alportel;S Bras de Alportel;37.17571;-7.9050636;812908;
Escola Básica de Alte, Loulé;R. dos Seromonheiros  ;8100 - 012 alte;Alte;37.236343;-8.175085;808794;
Escola Básica de Alto de Rodes, Faro;R. D. Diogo Mendonça Corte Real  ;8000 - 305 faro;Faro;37.022926;-7.9361577;805232;
Escola Básica de Altura, Castro Marim;Rua João de Almeida  ;8950 - 414 altura;Altura;37.17923;-7.501156;804817;
Escola Básica de Alvor, Portimão;R. D. Sancho I  ;8500 - 013 alvor;Alvor;37.12804;-8.593618;811939;
Escola Básica de Ameijeira, Lagos;R. Leonel Duarte Neves - Apartado 777  ;8600 - 000 lagos;Ameijeira;37.094852;-8.680313;807201;
Escola Básica de Amorosa, Silves;R. Luís de Camões  ;8375 - 010 s bartolomeu de messines;Amorosa;37.253128;-8.319413;813914;
Escola Básica de Areal Gordo, Faro;Areal Gordo  ;8000 - 765 mar e guerra;Faro;37.03741;-7.8966556;805098;
Escola Básica de Armação de Pêra, Silves;Sítio da Torre - Armação de Pêra  ;8365 - 112 armação de pêra;Armação de Pêra;37.107834;-8.356989;813315;
Escola Básica de Benafim Grande, Loulé;Rua  Nova  ;8100 - 352 benafim;Benafim Grande;37.232674;-8.126974;808439;
Escola Básica de Benfarras, Loulé;Benfarras  ;8100 - 068 boliqueime;Boliqueime;37.119923;-8.130274;808066;
Escola Básica de Bensafrim, Lagos;Bensafrim  ;8600 - 069 bensafrim;Bensafrim;37.155334;-8.732908;807081;
Escola Básica de Bordeira, Faro;R. da Escola  ;8000 - 765 mar e guerra;Bordeira;37.12637;-7.9219937;805105;
Escola Básica de Brancanes, Olhão;Brancanes  ;8700 - 207 olhão;Brancanes;37.05264;-7.83756;810522;
Escola Básica de Brejos, Albufeira;Branqueira  ;8200 - 315 albufeira;Branqueira;37.099815;-8.216442;801797;
Escola Básica de Budens, Vila do Bispo;Rua da Escola  ;8650 - 064 budens;Budens;37.085438;-8.8307085;815308;
Escola Básica de Cabanas, Tavira;Av. 28 de Maio  ;8800 - 591 cabanas de tavira;Cabanas;37.13506;-7.601165;814036;
Escola Básica de Caliços, Albufeira;Rua das Escolas  ;8200 - 126 albufeira;Albufeira;37.096424;-8.248115;801855;
Escola Básica de Carvoeiro, Lagoa;Lg. Nª Sra. da Encarnação  ;8400 - 513 carvoeiro lga;Praia Do Carvoeiro;37.095325;-8.470782;806181;
Escola Básica de Castro Marim;Avenida Dr. José Afonso Gomes, Apartado 62  ;8950 - 909 castro marim;Castro Marim;37.218983;-7.44733;804973;
Escola Básica de Cerro do Ouro, Albufeira;Cerro do Ouro  ;8200 - 468 paderne abf;Cerro do Ouro;37.154613;-8.221131;801025;
Escola Básica de Chinicato, Lagos;R. da Escola  ;8600 - 306 lagos;Chinicato;37.131012;-8.669556;807862;
Escola Básica de Chão das Donas, Portimão;Rua Poeta António Aleixo  ;8500 - 313 portimão;Chão das Donas;37.159203;-8.559744;811781;
Escola Básica de Conceição de Tavira, Tavira;R. Nª Sra. da Conceição  ;8800 - 081 conceição tvr;Conceição de Tavira;37.147068;-7.6047354;814957;
Escola Básica de Conceição, Faro;Lg da Igreja  ;8000 - 611 conceição;Conceição;37.061806;-7.9182525;805016;
Escola Básica de Correeira, Albufeira;Correeira - Albufeira  ;8200 - 498 paderne abf;Correeira;37.096462;-8.2344265;801473;
Escola Básica de Cortelha, Loulé;Cortelha  ;8100 - 170 salir;Salir;37.25631;-7.957127;808271;
Escola Básica de Escanxinas, Loulé;Almancil  ;8135 - 128 almancil;Almancil;37.080135;-8.044341;808098;
Escola Básica de Espiche, Lagos;Espiche  ;8600 - 109 luz lgs;Espiche;37.10252;-8.736759;807661;
Escola Básica de Estação, Loulé;Estacão  ;8100 - 306 loulé;Estação de Loulé;37.106964;-8.055241;808288;
Escola Básica de Estoi, Faro;R. de Faro  ;8000 - 611 conceição;Estoi;37.0947;-7.9004564;805292;
Escola Básica de Estômbar, Lagoa;R. João de Deus  ;8400 - 025 estombar;Estombar;37.14706;-8.485011;806241;
Escola Básica de Ferradeira, Faro;Ferradeira  ;8000 - 611 conceição;Ferradeira;37.049744;-7.89405;805687;
Escola Básica de Ferragudo, Lagoa;Escola Basica 1 Ciclo de Ferragudo  ;8400 - 000 lagoa;Ferragudo;37.121445;-8.514925;806045;
Escola Básica de Ferreiras, Albufeira;Rua da Igreja  ;8200 - 559 ferreiras;Ferreiras;37.129917;-8.2464075;801596;
Escola Básica de Figueira, Portimão;R. da Escola  ;8500 - 130 mexilhoeira grande;Figueira;37.162804;-8.599729;811020;
Escola Básica de Fontaínhas, Albufeira;Fontainhas  ;8200 - 560 ferreiras;Fontaínhas;37.122593;-8.219614;801931;
Escola Básica de Fonte Santa, Loulé;Fonte Santa  ;8125 - 020 quarteira;Fonte Santa;37.07318;-8.07807;808685;
Escola Básica de Fuseta, Olhão;R. S. Gonçalo de Lagos  ;8700 - 027 fuseta;Fuseta;37.053925;-7.7489953;810836;
Escola Básica de Gilvrasino, Loulé;Gilvrasino  ;8100 - 314 loulé;Parragil;37.154877;-8.103233;808770;
Escola Básica de Hortas de Santo António, Loulé;Loulé ( S.Sebastião)  ;8100 - 000 loulé;Loulé;37.140102;-8.030083;808667;
Escola Básica de Ilha da Culatra, Faro;Ilha da Culatra  ;8700 - 283 faro;Ilha da Culatra;36.993202;-7.8390102;805871;
Escola Básica de Ilha do Ancão, Faro;Montenegro  ;8000 - 765 mar e guerra;Ilha do Ancão;37.004448;-7.989016;805194;
Escola Básica de Lagoa;Lg. do Antigo Convento S. José  ;8400 - 325 lagoa;Lagoa;37.137756;-8.4543;806256;
Escola Básica de Luz, Lagos;R. da Escola  ;8600 - 000 lagos;Luz;37.087753;-8.732418;807245;
Escola Básica de Marchil, Faro;Pontes de Marchil  ;8000 - 765 mar e guerra;Marchil;37.03616;-7.9510427;805467;
Escola Básica de Marmelete, Monchique;Marmelete  ;8550 - 145 marmelete;Marmelete;37.3115;-8.667411;809938;
Escola Básica de Mesquita Baixa, São Brás de Alportel;Mesquita Baixa  ;8150 - 000 s bras de alportel;S Bras de Alportel;37.149906;-7.8464704;812856;
Escola Básica de Mexilhoeira Grande, Portimão;Mexilhoeira Grande  ;8500 - 132 mexilhoeira grande;Mexilhoeira Grande;37.158173;-8.6170635;811049;
Escola Básica de Mexilhoeira da Carregação, Lagoa;R. D. João II  ;8400 - 092 estombar;Mexilhoeira da Carregação;37.145187;-8.503424;806963;
Escola Básica de Moncarapacho, Olhão;Av. D. Mª Rosa Dias  ;8700 - 082 moncarapacho;Moncarapacho;37.083405;-7.786503;810240;
Escola Básica de Monte Gordo, Vila Real de Santo António;Rua Pêro de Alenquer  ;8901 - 908 monte gordo;Monte Gordo;37.182873;-7.453345;816411;
Escola Básica de Montenegro, Faro;Montenegro-Faro  ;8005 - 183 faro;Montenegro;37.032146;-7.964514;805473;
Escola Básica de Montes de Alvor, Portimão;R. da Cruz  ;8500 - 059 alvor;Montes de Alvor;37.144833;-8.585049;811421;
Escola Básica de Odeceixe, Aljezur;Rua das Escolas  ;8670 - 320 odeceixe;Odeceixe;37.43209;-8.773846;803655;
Escola Básica de Odeleite, Castro Marim;Odeleite  ;8950 - 121 castro marim;Odeleite;37.335083;-7.491263;804372;
Escola Básica de Odiáxere, Lagos;Tv. João de Deus  ;8600 - 000 lagos;Odeáxere;37.15004;-8.652852;807900;
